time,x,x_target,y,y_target,z,z_target,roll_deg,roll_target_deg,pitch_deg,pitch_target_deg,yaw_deg,yaw_target_deg,roll_rad,roll_target_rad,pitch_rad,pitch_target_rad,yaw_rad,yaw_target_rad
3.366666842252016,3.740330498658295e-07,2.0,-1.5229479686240666e-06,0.0,1.1229133605957031,1.5,3.251263860325274e-06,1.9310734960484545e-05,2.283564086571959e-06,6.403647111302666,0.00011762770795487185,0.0,5.674525921377707e-08,3.370359060404324e-07,3.9855711990977515e-08,0.1117647262280553,2.0529907953868394e-06,0.0
3.400000177323818,-1.4386278053279966e-06,2.0,-1.47381172155292e-06,0.0,1.124508261680603,1.5,6.83762956902398e-05,2.0065627028854886e-05,0.2728165648995247,6.415529224856188,0.00012035218820680029,0.0,1.1933914901118932e-06,3.50211258130685e-07,0.0047615473114775,0.11197210823166012,2.100541946188555e-06,0.0
3.4333335123956203,6.496123387478292e-05,2.0,-1.4320946775114862e-06,0.0,1.1296722888946533,1.5,0.0004471127294642388,1.9787352875617458e-05,1.0211633646337142,6.402943804478465,0.00012647350436125656,0.0,7.80358925672963e-06,3.4535445793349264e-07,0.017822662913601732,0.11175245120832125,2.2073790676393348e-06,0.0
3.4666668474674225,0.0003795953234657645,2.0,-1.4989494729888975e-06,0.0,1.137954831123352,1.5,0.0016897262801041102,-1.9816408469193644e-05,1.770422730268727,6.3471173124768985,0.00014669350628894616,0.0,2.9491287045292676e-05,-3.458615737075184e-07,0.030899705795336758,0.11077809511305564,2.560284676037119e-06,0.0
3.5000001825392246,0.0011076397495344281,2.0,-1.9605045054049697e-06,0.0,1.148725986480713,1.5,0.0020460186674446435,-0.00011877842977579829,2.3969094372854487,6.255331752503108,0.00017436170854756556,0.0,3.5709762304175946e-05,-2.07307467993655e-06,0.041833961552755615,0.10917613488572628,3.0431859035577586e-06,0.0
3.5333335176110268,0.002373436698690057,2.0,-2.881279897337663e-06,0.0,1.1614465713500977,1.5,0.002104369951452288,-0.00022332251331964837,2.9263224237762087,6.135675103153621,0.00019632468340171795,0.0,3.6728184332875656e-05,-3.897713151256756e-06,0.051073961269835634,0.1070877323826734,3.4265121282954393e-06,0.0
3.566666852682829,0.004272936377674341,2.0,-4.254688519722549e-06,0.0,1.1756629943847656,1.5,0.002360167559482162,-0.0003311581308187581,3.3665764764479458,5.993728204156617,0.00021279249732109514,0.0,4.1192694811722834e-05,-5.779799727537434e-06,0.05875784403420599,0.10461029163217984,3.7139297017943236e-06,0.0
3.600000187754631,0.006879372522234917,2.0,-6.124301307863789e-06,0.0,1.190994143486023,1.5,0.0022540492711024328,-0.000451835432683153,3.727164303562209,5.8341038907695255,0.00022448644162727601,0.0,3.934058128291573e-05,-7.886015977494217e-06,0.06505128885996196,0.10182432179733983,3.9180275324820235e-06,0.0
3.633333522826433,0.010247830301523209,2.0,-8.451669600617606e-06,0.0,1.2071197032928467,1.5,0.0015945688334642579,-0.0005567449107940514,4.017877724405728,5.66039550808133,0.0002241975395851247,0.0,2.7830476293636438e-05,-9.717031787078314e-06,0.07012519523341727,0.0987925385811165,3.912985240630748e-06,0.0
3.6666668578982353,0.014419113285839558,2.0,-1.1098284630861599e-05,0.0,1.2237706184387207,1.5,0.0014553562789221522,-0.0006351334623977473,4.250519060245644,5.475488697911123,0.00021367832673928406,0.0,2.5400758856764506e-05,-1.108517010843229e-05,0.0741855525200617,0.09556530593428625,3.729390341752746e-06,0.0
3.7000001929700375,0.01942303031682968,2.0,-1.4022074537933804e-05,0.0,1.2407218217849731,1.5,0.0011002548864452904,-0.0007058764394471701,4.424826950075193,5.281680829007489,0.00019838562626654216,0.0,1.9203070379626645e-05,-1.23198679806075e-05,0.07722779910979087,0.09218272050564431,3.4624823669821064e-06,0.0
3.7333335280418396,0.025279395282268524,2.0,-1.715666803647764e-05,0.0,1.257785439491272,1.5,0.0008469319130765448,-0.0007650837873742068,4.550802117234765,5.080973007690977,0.0001787733480549845,0.0,1.4781750423400125e-05,-1.335323114330813e-05,0.07942648055247564,0.08867970818916672,3.1201835383732802e-06,0.0
3.7666668631136417,0.03200024366378784,2.0,-2.0453033357625827e-05,0.0,1.2748056650161743,1.5,0.0006639139377019376,-0.0008117523255109714,4.634361505323226,4.875055550159363,0.00015667282621365287,0.0,1.1587484162779326e-05,-1.416775079088721e-05,0.08088486699557101,0.08508577056790445,2.7344566658331235e-06,0.0
3.800000198185444,0.0395909808576107,2.0,-2.386884079896845e-05,0.0,1.2916537523269653,1.5,0.00046445022763696964,-0.0008501889030744076,4.678628023983587,4.66532301927205,0.00013287200787921507,0.0,8.106185683902283e-06,-1.4838595622567353e-05,0.08165746349458983,0.08142524735538013,2.319054021228151e-06,0.0
3.833333533257246,0.04805129021406174,2.0,-2.7368307200958952e-05,0.0,1.3082246780395508,1.5,0.0002857265537027929,-0.0008806109584472687,4.688472689994758,4.452998056267616,0.00011134071829826954,0.0,4.9868691224901315e-06,-1.536956065404781e-05,0.08182928533024393,0.07771947766677763,1.9432621258403014e-06,0.0
3.866666868329048,0.057376064360141754,2.0,-3.091934195253998e-05,0.0,1.3244332075119019,1.5,0.0001420938343439453,-0.0009039123570750011,4.668509964706724,4.239147404334801,9.764106636683928e-05,0.0,2.480005256085242e-06,-1.5776246780421428e-05,0.0814808700462966,0.07398707968301362,1.7041580932596428e-06,0.0
3.9000002034008503,0.06755604594945908,2.0,-3.4494223655201495e-05,0.0,1.3402122259140015,1.5,4.99783600904002e-06,-0.0009208339011630917,4.622528809415691,4.024699013352981,8.394813308700725e-05,0.0,8.722869383248143e-08,-1.607158343927999e-05,0.08067834749259727,0.07024424918477674,1.465171323270668e-06,0.0
3.9333335384726524,0.07857845723628998,2.0,-3.8066496927058324e-05,0.0,1.3555082082748413,1.5,-0.00011731604028202621,-0.0009317259595634015,4.553785245359719,3.8104660056667625,7.076953313783013e-05,0.0,-2.0475511683236542e-06,-1.6261685720684904e-05,0.07947854596026492,0.06650517783420191,1.2351613633543698e-06,0.0
3.9666668735444546,0.09042748063802719,2.0,-4.1615050577092916e-05,0.0,1.3702811002731323,1.5,-0.0002280032451584347,-0.0009373032134620147,4.465224283754342,3.5971690759674297,5.8917874780252866e-05,0.0,-3.979407333246506e-06,-1.6359027164435395e-05,0.07793286559151881,0.06278244412655368,1.028310903193143e-06,0.0
4.000000208616257,0.10308457911014557,2.0,-4.5117285480955616e-05,0.0,1.3845016956329346,1.5,-0.000328352936238826,-0.0009381577701085744,4.359583417029132,3.38544856328661,4.81960417508538e-05,0.0,-5.73083984595852e-06,-1.637394199156266e-05,0.07608908464250337,0.05908722408626296,8.411796149810514e-07,0.0
4.033333543688059,0.11652900278568268,2.0,-4.8557438276475295e-05,0.0,1.3981488943099976,1.5,-0.0004184723251322307,-0.0009347822232514194,4.239333444844983,3.175872832521214,3.916107975985046e-05,0.0,-7.30371990203364e-06,-1.631502758484996e-05,0.07399032670245839,0.055429437552133635,6.834897804455008e-07,0.0
4.066666878759861,0.1307380348443985,2.0,-5.1917184464400634e-05,0.0,1.411210536956787,1.5,-0.0004981691023930869,-0.0009276289306438031,4.106686682823996,2.968950480371997,3.182088710074432e-05,0.0,-8.694691068464128e-06,-1.6190179076488487e-05,0.0716752039630828,0.05181796121115863,5.553792508133809e-07,0.0
4.100000213831663,0.14568720757961273,2.0,-5.5184926168294623e-05,0.0,1.423681378364563,1.5,-0.0005675131494557373,-0.0009171518702638438,3.9636670413548827,2.765136377549822,2.6170057486455068e-05,0.0,-9.904973006365282e-06,-1.600731987692795e-05,0.06917904032442494,0.04826073405491341,4.5675366857483227e-07,0.0
4.133333548903465,0.16135062277317047,2.0,-5.834803596371785e-05,0.0,1.4355605840682983,1.5,-0.0006266299286542314,-0.0009037490432891758,3.812069788983466,2.564834032865576,2.2693452872740456e-05,0.0,-1.0936755446553498e-05,-1.577339641714488e-05,0.06653316913356694,0.04476479864070875,3.960754712754867e-07,0.0
4.166666883975267,0.1777011752128601,2.0,-6.139840843388811e-05,0.0,1.446852684020996,1.5,-0.0006766958644258767,-0.0008878560308845154,3.653522697510092,2.3684001097776655,2.094675146183791e-05,0.0,-1.1810570868860717e-05,-1.5496011022623256e-05,0.06376600036789594,0.04133637992021541,3.655897806060069e-07,0.0
4.2000002190470695,0.19471074640750885,2.0,-6.432661029975861e-05,0.0,1.4575655460357666,1.5,-0.0007183838517936046,-0.0008698266540150891,3.4894592227650687,2.1761506569107296,2.0558221317912705e-05,0.0,-1.2538163506957371e-05,-1.518133903416886e-05,0.06090255255133272,0.03798099398252973,3.588086503512646e-07,0.0
4.233333554118872,0.21235035359859467,2.0,-6.712678441544995e-05,0.0,1.467710256576538,1.5,-0.0007524874712794983,-0.0008499691504372628,3.321187873184245,1.9883636765840746,2.1649034742021057e-05,0.0,-1.3133383953833513e-05,-1.4834760215509237e-05,0.057965663464372964,0.03470349288345178,3.7784693612690863e-07,0.0
4.266666889190674,0.230590358376503,2.0,-6.979490717640147e-05,0.0,1.4773004055023193,1.5,-0.0007792554940431158,-0.000828544180032189,3.149871554773295,1.8052797191938077,2.3945740040578617e-05,0.0,-1.3600574085307431e-05,-1.4460823939798354e-05,0.05497562964570691,0.031508075019410615,4.1793200553473746e-07,0.0
4.300000224262476,0.24940058588981628,2.0,-7.232445204863325e-05,0.0,1.4863526821136475,1.5,-0.0007988872549985082,-0.0008057813412733415,2.97655435817075,1.627109344345776,2.6966697588990634e-05,0.0,-1.3943212951943495e-05,-1.4063537456355886e-05,0.051950673914666165,0.02839841534879997,4.706576613175031e-07,0.0
4.333333559334278,0.26875048875808716,2.0,-7.471451681340113e-05,0.0,1.4948832988739014,1.5,-0.0008115135090132586,-0.0007818543464297166,2.8021931991574536,1.454024635438141,3.0244011141483586e-05,0.0,-1.4163582656694041e-05,-1.3645932616226927e-05,0.04890749760229075,0.02537751729350578,5.278575734287372e-07,0.0
4.36666689440608,0.2886093556880951,2.0,-7.696163811488077e-05,0.0,1.502910852432251,1.5,-0.0008164402114680338,-0.0007568770214769852,2.627629258041833,1.28617523090345,3.4153759346406713e-05,0.0,-1.4249569835795956e-05,-1.3209996057461227e-05,0.045860782074565676,0.022447992536863526,5.960955525285837e-07,0.0
4.400000229477882,0.30894631147384644,2.0,-7.906507380539551e-05,0.0,1.5104551315307617,1.5,-0.0008130679992508869,-0.0007309842456938449,2.4536333863831303,1.1236797195920216,3.838888945739745e-05,0.0,-1.4190713629530765e-05,-1.2758081867564776e-05,0.04282398122924382,0.019611910844767412,6.700125172157249e-07,0.0
4.4333335645496845,0.3297305405139923,2.0,-8.102314313873649e-05,0.0,1.517534852027893,1.5,-0.0008013933716824732,-0.0007043314668578578,2.280739207296139,0.9568941848657532,4.353147572694106e-05,0.0,-1.3986952939517846e-05,-1.2292903122070938e-05,0.0398064085466431,0.016700954119094686,7.597675796871136e-07,0.0
4.466666899621487,0.3509312868118286,2.0,-8.283404167741537e-05,0.0,1.5241711139678955,1.5,-0.0007828694880932207,-0.0006771289402665204,2.1087231378846645,0.7957107726751618,4.8796608634590486e-05,0.0,-1.3663650180629247e-05,-1.1818129468190791e-05,0.036804161769073765,0.0138877728767697,8.516614844806985e-07,0.0
4.500000234693289,0.37251776456832886,2.0,-8.450106543023139e-05,0.0,1.5303832292556763,1.5,-0.0007610413110468486,-0.0006496653780171123,1.9378933543547778,0.640271558287979,5.4067988007880115e-05,0.0,-1.3282676621461802e-05,-1.13387998826122e-05,0.03382261958600807,0.011174846799000021,9.436644106663178e-07,0.0
4.533333569765091,0.39445939660072327,2.0,-8.60249056131579e-05,0.0,1.5361913442611694,1.5,-0.0007425148072912318,-0.0006222377263486187,1.7688028595024987,0.49065650221332047,5.9104703076386974e-05,0.0,-1.2959328132043193e-05,-1.0860097054906871e-05,0.03087143371700927,0.008563571459941287,1.0315716720965742e-06,0.0
4.566666904836893,0.41672566533088684,2.0,-8.740527846384794e-05,0.0,1.5416157245635986,1.5,-0.0007323268564495566,-0.0005950511259492765,1.6019196082113938,0.3469127261712184,6.380529964438674e-05,0.0,-1.2781514845824634e-05,-1.0385601365514343e-05,0.027958771515546415,0.006054769288757263,1.1136125590161156e-06,0.0
4.600000239908695,0.4392864406108856,2.0,-8.864706614986062e-05,0.0,1.546675443649292,1.5,-0.0007324347972247764,-0.0005682139448948993,1.4376460126559407,0.20906480483440137,6.789081216425614e-05,0.0,-1.2783398767749374e-05,-9.917204194161618e-06,0.025091656399014235,0.0036488691943996625,1.1849182041192869e-06,0.0
4.633333574980497,0.4621121287345886,2.0,-8.975222590379417e-05,0.0,1.551389455795288,1.5,-0.0007368419656355878,-0.0005416655986146239,1.276363695068238,0.07711523019466668,7.210553374304137e-05,0.0,-1.286031836720792e-05,-9.453848140611222e-06,0.022276748931861663,0.0013459146703302812,1.2584789727239428e-06,0.0
4.6666669100522995,0.4851730465888977,2.0,-9.072075044969097e-05,0.0,1.555776834487915,1.5,-0.0007361405362236675,-0.0005153339820782078,1.1185049669966802,-0.04895444227049121,7.60026058566306e-05,0.0,-1.2848076114499582e-05,-8.994274734678176e-06,0.019521594374002582,-0.00085441620109756,1.3264957122937295e-06,0.0
4.700000245124102,0.5084408521652222,2.0,-9.155639418167993e-05,0.0,1.5598548650741577,1.5,-0.0007227960659324837,-0.0004890874128170653,0.9645468182140063,-0.1691763796740835,7.97223931000505e-05,0.0,-1.2615171170983858e-05,-8.536185683718504e-06,0.016834517767469623,-0.0029526848419167686,1.3914182471650903e-06,0.0
4.733333580195904,0.531887412071228,2.0,-9.226304246112704e-05,0.0,1.5636413097381592,1.5,-0.0006937632025472614,-0.00046278362842982,0.8149468437927297,-0.2835995795305688,8.279074400256989e-05,0.0,-1.2108452113630024e-05,-8.077098040426394e-06,0.014223505652919048,-0.00494974642007994,1.4449710730205934e-06,0.0
4.766666915267706,0.5554850101470947,2.0,-9.284380939789116e-05,0.0,1.567152738571167,1.5,-0.0006525493135907455,-0.00043642785559455476,0.6700431806938192,-0.39229095040669393,8.478523558447303e-05,0.0,-1.138913405378749e-05,-7.617103027543335e-06,0.011694459633642448,-0.006846768710374597,1.4797815180281131e-06,0.0
4.800000250339508,0.5792071223258972,2.0,-9.330351167591289e-05,0.0,1.5704047679901123,1.5,-0.0006101885185756322,-0.00041040792878211687,0.5299313601714295,-0.49533413969562173,8.647250046549117e-05,0.0,-1.0649798707011363e-05,-7.162969633538341e-06,0.009249047044563386,-0.008645211635222142,1.5092298455551503e-06,0.0
4.83333358541131,0.6030276417732239,2.0,-9.364561265101656e-05,0.0,1.5734140872955322,1.5,-0.0005842659937656601,-0.0003853034698348206,0.3944965611255725,-0.5928215756576856,8.786897670916219e-05,0.0,-1.0197365298647431e-05,-6.724814167976271e-06,0.006885263879436308,-0.01034668837208728,1.533602953933092e-06,0.0
4.866666920483112,0.6269216537475586,2.0,-9.387361933477223e-05,0.0,1.5761940479278564,1.5,-0.0005809682693121022,-0.0003613243413824965,0.26359088845443684,-0.6848646132489941,8.906101781827513e-05,0.0,-1.0139809149109315e-05,-6.3062994247245635e-06,0.00460052888178703,-0.011953142431592526,1.554407996106238e-06,0.0
4.9000002555549145,0.6508647203445435,2.0,-9.399127156939358e-05,0.0,1.5787591934204102,1.5,-0.0005845712431608787,-0.0003381798368557725,0.1372794002823112,-0.7715749133146449,9.03568776892412e-05,0.0,-1.0202692905633717e-05,-5.902351616990498e-06,0.0023959775300895635,-0.013466522663130389,1.5770250174990647e-06,0.0
4.933333590626717,0.6748334765434265,2.0,-9.400391718372703e-05,0.0,1.5811227560043335,1.5,-0.0005734088357217292,-0.0003154146653250238,0.015917404676580812,-0.8530744732133737,9.169438153300672e-05,0.0,-1.000787214337145e-05,-5.505024418997656e-06,0.0002778111199786783,-0.014888958322289541,1.6003688633308527e-06,0.0
4.966666925698519,0.6988047361373901,2.0,-9.391265484737232e-05,0.0,1.5832973718643188,1.5,-0.0005393126281045981,-0.0002926490642484633,-0.10008643846859719,-0.9294836799736813,9.307497450059041e-05,0.0,-9.412781058008942e-06,-5.1076897240161095e-06,-0.001746837887871732,-0.01622255055909402,1.6244647562450675e-06,0.0
5.000000260770321,0.7227575182914734,2.0,-9.372180647915229e-05,0.0,1.5852954387664795,1.5,-0.0004908889987376345,-0.00026991764045167753,-0.21061027277365768,-1.0009350357164808,9.384574466708988e-05,0.0,-8.567629289790009e-06,-4.710951535096007e-06,-0.003675842698423697,-0.017469611971819628,1.6379172334266282e-06,0.0
5.033333595842123,0.7466710805892944,2.0,-9.343885903945193e-05,0.0,1.5871280431747437,1.5,-0.00045181905490849404,-0.00024795047901141423,-0.3159648400793315,-1.0675763206353894,9.415689733032038e-05,0.0,-7.885730131402268e-06,-4.327552240646273e-06,-0.005514626779921676,-0.01863272181141423,1.6433478718763495e-06,0.0
5.066666930913925,0.7705251574516296,2.0,-9.306702122557908e-05,0.0,1.5888056755065918,1.5,-0.0004419227606860619,-0.00022738485904985048,-0.4166148644282726,-1.1295491725667077,9.38194178599017e-05,0.0,-7.713007213474735e-06,-3.968614459603116e-06,-0.00727130109702316,-0.01971435212446666,1.6374577439596567e-06,0.0
5.100000265985727,0.7943008542060852,2.0,-9.260961087420583e-05,0.0,1.5903395414352417,1.5,-0.00044625726573939623,-0.00020797249047796473,-0.5127000394868341,-1.1870073261931657,9.319938836900789e-05,0.0,-7.788658598099751e-06,-3.62980471241304e-06,-0.008948303764150194,-0.020717186087365072,1.6266361878840956e-06,0.0
5.1333336010575294,0.817980170249939,2.0,-9.207029506796971e-05,0.0,1.5917384624481201,1.5,-0.000435362285524282,-0.00018903881905744062,-0.6038927247032808,-1.2400974270631548,9.218735908237857e-05,0.0,-7.598505321406369e-06,-3.299349806634142e-06,-0.010539916374911947,-0.021643783147762285,1.6089729447058045e-06,0.0
5.166666936129332,0.8415459990501404,2.0,-9.145290096057579e-05,0.0,1.5930116176605225,1.5,-0.00039958856445485355,-0.00017006359715125306,-0.6898158120737362,-1.2889603812486699,9.104795339283302e-05,0.0,-6.974136103054775e-06,-2.968169708074615e-06,-0.01203955715300515,-0.022496602580550668,1.5890865639072784e-06,0.0
5.200000271201134,0.8649819493293762,2.0,-9.076327842194587e-05,0.0,1.5941680669784546,1.5,-0.0003532746730805413,-0.00015125423273219525,-0.7705635836748023,-1.33374841573829,9.020593010468868e-05,0.0,-6.165806209162024e-06,-2.6398843687545856e-06,-0.013448871631092126,-0.023278301247891316,1.5743904851506908e-06,0.0
5.233333606272936,0.8882727026939392,2.0,-9.000464342534542e-05,0.0,1.5952153205871582,1.5,-0.0003269435865911655,-0.0001335273672026908,-0.8466819528532498,-1.3746203394772598,8.944836683018507e-05,0.0,-5.706242054295022e-06,-2.330492199206445e-06,-0.014777387794504606,-0.02399165088876037,1.5611685117184131e-06,0.0
5.266666941344738,0.9114038944244385,2.0,-8.91798990778625e-05,0.0,1.5961612462997437,1.5,-0.0003273736393676888,-0.00011722871245849625,-0.9186273331501574,-1.4117316580289372,8.897093480945937e-05,0.0,-5.713747891202697e-06,-2.046027010274456e-06,-0.0160330715622851,-0.024639365587243594,1.5528357510022997e-06,0.0
5.30000027641654,0.9343618154525757,2.0,-8.829530270304531e-05,0.0,1.597013235092163,1.5,-0.0003254177429014578,-0.0001017669309987479,-0.9862920044341648,-1.4452263788275936,8.88465227303258e-05,0.0,-5.679611058038843e-06,-1.7761680155780322e-06,-0.017214042863470686,-0.025223958747216373,1.5506643505921674e-06,0.0
5.333333611488342,0.957133412361145,2.0,-8.735122537473217e-05,0.0,1.5977774858474731,1.5,-0.00030023338094923424,-8.64310002509725e-05,-1.0492983976662273,-1.4752532930262514,8.921095420320858e-05,0.0,-5.240061021958556e-06,-1.5085055301715155e-06,-0.018313711875176452,-0.02574802726419679,1.5570248796918642e-06,0.0
5.366666946560144,0.979706883430481,2.0,-8.635257836431265e-05,0.0,1.5984604358673096,1.5,-0.00025949843603879143,-7.113894142538922e-05,-1.1076329361326533,-1.5019556771106313,8.974146595107551e-05,0.0,-4.529102112652822e-06,-1.2416087542564298e-06,-0.01933184163904687,-0.026214071784601348,1.5662840564126521e-06,0.0
5.400000281631947,1.0020710229873657,2.0,-8.530418563168496e-05,0.0,1.59906804561615,1.5,-0.000231580260047287,-5.6669096623278235e-05,-1.1618014830576053,-1.525485017731206,8.984429989326273e-05,0.0,-4.0418380204498374e-06,-9.890623202070058e-07,-0.02027726113390833,-0.026624736249253624,1.5680788472866246e-06,0.0
5.433333616703749,1.0242154598236084,2.0,-8.421145321335644e-05,0.0,1.5996057987213135,1.5,-0.00022871971809615803,-4.3540018883096496e-05,-1.2122955550538679,-1.5459873058168445,8.997175340255974e-05,0.0,-3.991912145011214e-06,-7.599166858905379e-07,-0.021158548942982178,-0.02698256868054042,1.5703033306670785e-06,0.0
5.466666951775551,1.0461305379867554,2.0,-8.307370444526896e-05,0.0,1.600078821182251,1.5,-0.00022656360626685965,-3.1232276511077e-05,-1.2590877326684045,-1.563604012785436,8.991116555574369e-05,0.0,-3.9542808945487595e-06,-5.451060580115808e-07,-0.021975226506533826,-0.02729003822050137,1.5692458732534446e-06,0.0
5.500000286847353,1.0678073167800903,2.0,-8.189555956050754e-05,0.0,1.6004923582077026,1.5,-0.00020528879426738838,-1.908654007219682e-05,-1.3018845312245746,-1.5784689273445627,8.953453473133034e-05,0.0,-3.5829653774151875e-06,-3.331229670736707e-07,-0.02272217155065175,-0.027549479922585773,1.562672425302931e-06,0.0
5.533333621919155,1.0892378091812134,2.0,-8.068091847235337e-05,0.0,1.600850224494934,1.5,-0.00017218942323776024,-7.049643383566568e-06,-1.3407336765656903,-1.5907166110449553,8.907041806337899e-05,0.0,-3.005272372608951e-06,-1.2303948813467013e-07,-0.023400217048440038,-0.027763242328900466,1.5545720613337946e-06,0.0
5.566666956990957,1.1104145050048828,2.0,-7.943224045448005e-05,0.0,1.6011574268341064,1.5,-0.00015110016324175539,4.209679351162786e-06,-1.3760999001190988,-1.6004817743730526,8.870332706099334e-05,0.0,-2.6371953488695403e-06,7.34727651310092e-08,-0.024017474093443382,-0.027933676580970773,1.5481651146877187e-06,0.0
5.600000292062759,1.1313302516937256,2.0,-7.815509889042005e-05,0.0,1.6014175415039062,1.5,-0.00014812998180909796,1.436773418354279e-05,-1.4083583341999648,-1.6078948267188136,8.823169886543285e-05,0.0,-2.585355903488066e-06,2.5076426755416095e-07,-0.024580489979692047,-0.028063058752026988,1.5399336498299486e-06,0.0
5.6333336271345615,1.151978850364685,2.0,-7.684888987569138e-05,0.0,1.601633906364441,1.5,-0.0001422111703946482,2.3899584777211906e-05,-1.4374579450395368,-1.6130815311902928,8.766837724950921e-05,0.0,-2.4820531565012947e-06,4.1712644422186323e-07,-0.025088373999891608,-0.028153583822382214,1.5301018328844261e-06,0.0
5.666666962206364,1.172355055809021,2.0,-7.551821181550622e-05,0.0,1.6018108129501343,1.5,-0.0001223367240983459,3.326151912013773e-05,-1.4632387925740702,-1.6161589373814542,8.68829319425192e-05,0.0,-2.135178631620027e-06,5.805230228614508e-07,-0.02553833467332388,-0.028207294692839238,1.5163932261831126e-06,0.0
5.700000297278166,1.1924537420272827,2.0,-7.416553853545338e-05,0.0,1.6019505262374878,1.5,-9.768056704671652e-05,4.23515842899818e-05,-1.4858672562749176,-1.6172458192341088,8.648645673829794e-05,0.0,-1.704847510180277e-06,7.391745892960873e-07,-0.025933275869571684,-0.02822626435974824,1.5094734284669348e-06,0.0
5.733333632349968,1.212270736694336,2.0,-7.279378041857854e-05,0.0,1.602056622505188,1.5,-8.481314244854173e-05,5.065673189774861e-05,-1.5057232362066437,-1.6164603814854952,8.649543449633162e-05,0.0,-1.4802685846900187e-06,8.841267599157487e-07,-0.026279828095590225,-0.02821255588496548,1.5096301199040698e-06,0.0
5.76666696742177,1.231801986694336,2.0,-7.140469824662432e-05,0.0,1.602131724357605,1.5,-8.051477334828284e-05,5.817364111975659e-05,-1.5230048595923422,-1.6139130614317037,8.639904398803935e-05,0.0,-1.4052478914245146e-06,1.0153215754133134e-06,-0.026581449323760314,-0.028168096762924737,1.507947788166699e-06,0.0
5.800000302493572,1.2510441541671753,2.0,-7.000208279350773e-05,0.0,1.602178692817688,1.5,-7.068756634429299e-05,6.526001524807876e-05,-1.5376578350964194,-1.6097084440690757,8.632857041323217e-05,0.0,-1.2337307729298444e-06,1.1390021359806783e-06,-0.02683719199152054,-0.028094712346160358,1.5067177922506632e-06,0.0
5.833333637565374,1.2699941396713257,2.0,-6.858677079435438e-05,0.0,1.6021995544433594,1.5,-5.4203553235196894e-05,7.213589096247842e-05,-1.5496949775579099,-1.603948707568283,8.591894012239985e-05,0.0,-9.460304702342101e-07,1.2590088061548697e-06,-0.02704727976000516,-0.027994185980174228,1.4995683949597372e-06,0.0
5.8666669726371765,1.2886499166488647,2.0,-6.716171628795564e-05,0.0,1.6021970510482788,1.5,-3.898587269146811e-05,7.859226373629696e-05,-1.5593316596163853,-1.5967349467682415,8.579833181214012e-05,0.0,-6.804318402294619e-07,1.3716937687941224e-06,-0.027215471590893422,-0.027868282102762206,1.497463382840438e-06,0.0
5.900000307708979,1.3070094585418701,2.0,-6.572846905328333e-05,0.0,1.6021718978881836,1.5,-3.119877313484677e-05,8.441829875831867e-05,-1.566802987251198,-1.5881632787385296,8.55053072279397e-05,0.0,-5.445213137858289e-07,1.4733772622649016e-06,-0.027345870857616143,-0.027718678273255797,1.4923491390568534e-06,0.0
5.933333642780781,1.3250715732574463,2.0,-6.429100903915241e-05,0.0,1.602127194404602,1.5,-2.3780716809042196e-05,8.977256196979995e-05,-1.5721779627553174,-1.5783284269809246,8.51200114248518e-05,0.0,-4.1505180680214596e-07,1.5668267843236555e-06,-0.02743968187737707,-0.02754702772864004,1.4856244586988536e-06,0.0
5.966666977852583,1.3428348302841187,2.0,-6.284887786023319e-05,0.0,1.6020644903182983,1.5,-1.3371638359802303e-05,9.480723399308671e-05,-1.5754865213539173,-1.567315304372853,8.466151326673191e-05,0.0,-2.3337911576452435e-07,1.6546983878880539e-06,-0.027497427118417808,-0.02735481247820336,1.477622156225332e-06,0.0
6.000000312924385,1.360298991203308,2.0,-6.140481127658859e-05,0.0,1.601984977722168,1.5,-3.323329876215636e-06,9.950764550862287e-05,-1.576859377643416,-1.55520812791566,8.416173173628452e-05,0.0,-5.8003048469858436e-08,1.7367360450328166e-06,-0.027521387980826272,-0.027143502385905405,1.4688993229783687e-06,0.0
6.033333647996187,1.3774635791778564,2.0,-5.996095933369361e-05,0.0,1.601890206336975,1.5,4.338633583964933e-06,0.00010373674980428852,-1.5764532674548593,-1.542091706810812,8.527050002692651e-05,0.0,7.572344107778994e-08,1.8105478394024178e-06,-0.027514300020910064,-0.026914577651547734,1.488250980291781e-06,0.0
6.066666983067989,1.3943281173706055,2.0,-5.8518398873275146e-05,0.0,1.6017823219299316,1.5,1.246072934743161e-05,0.00010760570659407275,-1.574339526969877,-1.5280404504916558,8.705414280731676e-05,0.0,2.1748075431256603e-07,1.8780738740015428e-06,-0.02747740828991442,-0.0266693369647368,1.5193814194890172e-06,0.0
6.1000003181397915,1.4108936786651611,2.0,-5.707775562768802e-05,0.0,1.6016614437103271,1.5,2.189741571172011e-05,0.00011119802214915126,-1.5705936067048885,-1.5131303532086628,8.83796727495089e-05,0.0,3.821820018474534e-07,1.9407716082082706e-06,-0.02741202964777319,-0.02640910667535591,1.54251628131404e-06,0.0
6.133333653211594,1.4271609783172607,2.0,-5.5642805818933994e-05,0.0,1.601529836654663,1.5,2.8338987822405483e-05,0.00011439685696814611,-1.5653655232459147,-1.497434228746382,8.976356873029588e-05,0.0,4.946086441835537e-07,1.9966018080271676e-06,-0.027320782377845045,-0.026135157623686286,1.5666698226838889e-06,0.0
6.166666988283396,1.443130373954773,2.0,-5.421274181571789e-05,0.0,1.601387858390808,1.5,3.16683419654834e-05,0.00011719701699580052,-1.5587680125374799,-1.4810185449392401,9.105522768501604e-05,0.0,5.527168359451777e-07,2.0454738200924723e-06,-0.027205634093547273,-0.025848649892285344,1.589213524256624e-06,0.0
6.200000323355198,1.4588031768798828,2.0,-5.278958997223526e-05,0.0,1.6012375354766846,1.5,3.8752767690800745e-05,0.0001197825449048954,-1.5508184539416934,-1.4639451457468418,9.186153536616505e-05,0.0,6.763633904649529e-07,2.090599795008383e-06,-0.027066888121970584,-0.02555066286187065,1.6032862480767948e-06,0.0
6.233333658427,1.4741812944412231,2.0,-5.1374918257351965e-05,0.0,1.601077914237976,1.5,4.934468204753339e-05,0.00012221636862965214,-1.541560970726747,-1.4462780179635086,9.239066173171074e-05,0.0,8.612271700791947e-07,2.13307803241854e-06,-0.026905314559421658,-0.025242313312680918,1.6125212453146784e-06,0.0
6.266666993498802,1.489266276359558,2.0,-4.9971593398367986e-05,0.0,1.6009113788604736,1.5,5.556689112190126e-05,0.0001243584141037332,-1.5311700780388589,-1.4280775164194384,9.20779628302647e-05,0.0,9.698252051743828e-07,2.1704637786686973e-06,-0.026723959269796607,-0.024924654635222584,1.6070636199170757e-06,0.0
6.300000328570604,1.5040602684020996,2.0,-4.857500971411355e-05,0.0,1.6007381677627563,1.5,5.505683451019101e-05,0.00012605160976772613,-1.5198056493117191,-1.40939731970005,9.168103474023995e-05,0.0,9.609230379284726e-07,2.2000156178858655e-06,-0.02652561257089979,-0.02459862369754901,1.6001359178524913e-06,0.0
6.3333336636424065,1.5185645818710327,2.0,-4.7192217607516795e-05,0.0,1.6005594730377197,1.5,5.62881232154225e-05,0.00012746975358338925,-1.5074577342630833,-1.3902891092952876,9.197394018309099e-05,0.0,9.8241307987738e-07,2.2247668967359827e-06,-0.02631010079754454,-0.02426512251182207,1.605248082227254e-06,0.0
6.366666998714209,1.5327823162078857,2.0,-4.5819891965948045e-05,0.0,1.6003750562667847,1.5,6.706676044650481e-05,0.00012891768655922387,-1.4940714001137698,-1.3708051094132492,9.245405284013066e-05,0.0,1.1705357884378113e-06,2.2500380945124964e-06,-0.026076465191866866,-0.02392506256242231,1.6136276288730946e-06,0.0
6.400000333786011,1.546716570854187,2.0,-4.446171806193888e-05,0.0,1.6001861095428467,1.5,7.648225735301252e-05,0.00013022045400390948,-1.4797874945201241,-1.3509955124324722,9.235020400571721e-05,0.0,1.3348672101677114e-06,2.2727756758100532e-06,-0.025827164009213713,-0.023579319871614626,1.6118151247882215e-06,0.0
6.433333668857813,1.5603687763214111,2.0,-4.311593511374667e-05,0.0,1.5999929904937744,1.5,7.541197625289814e-05,0.00013109001471936824,-1.4648408355565108,-1.3309017636282952,9.177250123930988e-05,0.0,1.3161872810488485e-06,2.287952373340806e-06,-0.025566295598125937,-0.023228617795913065,1.6017323094165338e-06,0.0
6.466667003929615,1.5737425088882446,2.0,-4.1787727241171524e-05,0.0,1.599796175956726,1.5,7.068863510998314e-05,0.00013156832566885032,-1.449276225416819,-1.3105676772155965,9.104073490662184e-05,0.0,1.2337494264100697e-06,2.2963004742576087e-06,-0.02529464190439902,-0.02287372103762643,1.5889605775558834e-06,0.0
6.500000339001417,1.5868405103683472,2.0,-4.0471779357176274e-05,0.0,1.5995962619781494,1.5,7.66786384992742e-05,0.000132129272375741,-1.432956753401498,-1.290030998815495,8.953781242552665e-05,0.0,1.3382947077588184e-06,2.3060908412210705e-06,-0.025009813385544595,-0.022515288382121457,1.5627296318585303e-06,0.0
6.533333674073219,1.599665641784668,2.0,-3.917251160601154e-05,0.0,1.599393367767334,1.5,8.919998614892174e-05,0.0001327858063504844,-1.4159063414948654,-1.2693291809641412,8.776242361517814e-05,0.0,1.5568334510320214e-06,2.317549520731548e-06,-0.02471222755895261,-0.022153973499467194,1.5317432516148834e-06,0.0
6.566667009145021,1.6122221946716309,2.0,-3.788966205320321e-05,0.0,1.5991878509521484,1.5,9.1989734887007e-05,0.00013312621486560395,-1.3983823172253627,-1.2485020101376476,8.599796961026755e-05,0.0,1.6055237518149662e-06,2.323490770122209e-06,-0.024406375637250392,-0.021790470794669572,1.5009477197291934e-06,0.0
6.600000344216824,1.6245123147964478,2.0,-3.662357630673796e-05,0.0,1.59898042678833,1.5,8.383912708284764e-05,0.0001329468716474494,-1.380537161329269,-1.2275817073104103,8.463069961070117e-05,0.0,1.4632688095936401e-06,2.32036064047429e-06,-0.02409491891133188,-0.02142534262982,1.4770843564730186e-06,0.0
6.633333679288626,1.6365399360656738,2.0,-3.537537850206718e-05,0.0,1.598771095275879,1.5,8.206006898216628e-05,0.00013268754325036696,-1.3622514306044013,-1.2066003564424819,8.34003273801277e-05,0.0,1.4322183881524734e-06,2.315834506101282e-06,-0.02377577270404985,-0.021059148975658484,1.4556103100244047e-06,0.0
6.666667014360428,1.6483081579208374,2.0,-3.414347884245217e-05,0.0,1.5985602140426636,1.5,9.378459881833405e-05,0.00013269366918784888,-1.3433961042614602,-1.1855828405158975,8.218991028209944e-05,0.0,1.6368500370419125e-06,2.3159414238801127e-06,-0.023446685177827505,-0.020692324122149237,1.4344845463413766e-06,0.0
6.70000034943223,1.659820795059204,2.0,-3.293049303465523e-05,0.0,1.598347783088684,1.5,0.00010202776180625102,0.00013263254086378034,-1.3241587368525782,-1.1645606383255716,8.143159837893454e-05,0.0,1.7807203719595971e-06,2.3148745333588907e-06,-0.023110929777126664,-0.020325417477908087,1.4212495068740847e-06,0.0
6.733333684504032,1.6710811853408813,2.0,-3.1734223739476874e-05,0.0,1.5981345176696777,1.5,9.596709084140201e-05,0.00013207966210361099,-1.3048109134348416,-1.143559628021096,8.036665191885891e-05,0.0,1.6749417087429605e-06,2.3052249786295917e-06,-0.022773246555392698,-0.019958880701849733,1.4026626847883068e-06,0.0
6.766667019575834,1.6820935010910034,2.0,-3.055760316783562e-05,0.0,1.5979200601577759,1.5,8.658275498214454e-05,0.00013120258218165368,-1.2853070016732662,-1.1226061068501025,7.888876262129136e-05,0.0,1.5111541498859463e-06,2.289917046188302e-06,-0.022432839078134762,-0.019593172767529556,1.3768686505657667e-06,0.0
6.800000354647636,1.6928614377975464,2.0,-2.939931619039271e-05,0.0,1.5977048873901367,1.5,9.307211515769689e-05,0.00013060696588108528,-1.2654435532363568,-1.1017198660093839,7.752225749828339e-05,0.0,1.624414851297132e-06,2.2795215806648348e-06,-0.02208615650211057,-0.01922863909649451,1.3530186369239076e-06,0.0
6.8333336897194386,1.7033886909484863,2.0,-2.82587279798463e-05,0.0,1.5974892377853394,1.5,0.00010549389599446448,0.000130203204426396,-1.2452567570622726,-1.080920697709082,7.635910133242106e-05,0.0,1.841215825859863e-06,2.272474613887865e-06,-0.02173383044344381,-0.01886562512797781,1.3327177321147365e-06,0.0
6.866667024791241,1.7136784791946411,2.0,-2.713732646952849e-05,0.0,1.597272515296936,1.5,0.00010452513160719988,0.00012948282685632496,-1.2250348142598797,-1.0602286735152404,7.510685100632297e-05,0.0,1.82430769762603e-06,2.2599016534326095e-06,-0.02138089096039208,-0.018504481176892948,1.3108618408651521e-06,0.0
6.900000359863043,1.7237356901168823,2.0,-2.603599932626821e-05,0.0,1.5970560312271118,1.5,9.236594687559685e-05,0.000128267671311277,-1.2048938553886048,-1.0396667369761836,7.37679001156363e-05,0.0,1.6120898897013342e-06,2.238693188247656e-06,-0.021029364913579575,-0.018145607683700278,1.287492739300159e-06,0.0
6.933333694934845,1.7335625886917114,2.0,-2.4953596948762424e-05,0.0,1.5968393087387085,1.5,8.975040328975356e-05,0.00012712506570363975,-1.18463000545948,-1.0192446603119398,7.249643589396234e-05,0.0,1.56644004239895e-06,2.218750958342636e-06,-0.02067569401318633,-0.017789175205814526,1.2653015023106416e-06,0.0
6.966667030006647,1.743165373802185,2.0,-2.3888431314844638e-05,0.0,1.5966222286224365,1.5,0.00010231982511204634,0.00012639147614420626,-1.1641164268553317,-0.9989819082979674,7.122011706164767e-05,0.0,1.7858178382699844e-06,2.2059474051722664e-06,-0.020317664525177276,-0.017435523467655593,1.2430255363815412e-06,0.0
7.000000365078449,1.7525465488433838,2.0,-2.2843407350592315e-05,0.0,1.596404790878296,1.5,0.00010830889183759369,0.00012558159515008952,-1.143568768066682,-0.9788912817791898,7.023672313092025e-05,0.0,1.8903467717524213e-06,2.1918123152756044e-06,-0.019959040225738987,-0.017084875886114438,1.2258620744462187e-06,0.0
7.033333700150251,1.7617104053497314,2.0,-2.181724448746536e-05,0.0,1.5961875915527344,1.5,9.81985736699971e-05,0.0001242803033171311,-1.1232227024958283,-0.9589897408319084,6.930575156930488e-05,0.0,1.713888431303661e-06,2.169100488261168e-06,-0.019603934391700936,-0.016737528470363906,1.2096135554535971e-06,0.0
7.0666670352220535,1.7706596851348877,2.0,-2.0811290596611798e-05,0.0,1.595970869064331,1.5,8.774867049452382e-05,0.00012276369492607856,-1.1029891813600292,-0.9392842923365922,6.833397868321541e-05,0.0,1.5315032143770416e-06,2.1426306783739275e-06,-0.019250792828609378,-0.016393603513538475,1.1926529190097282e-06,0.0
7.100000370293856,1.7793993949890137,2.0,-1.9823371985694394e-05,0.0,1.5957539081573486,1.5,9.486866544039975e-05,0.00012164725954696947,-1.082632899470331,-0.9197867286187728,6.736918881306228e-05,0.0,1.655770568907932e-06,2.123145205122723e-06,-0.01889550868617005,-0.01605330683054514,1.1758141591856675e-06,0.0
7.133333705365658,1.787933111190796,2.0,-1.8852451830753125e-05,0.0,1.5955370664596558,1.5,0.00010623490515163115,0.00012075833187977878,-1.0622180438426725,-0.9005058316397425,6.703776186932067e-05,0.0,1.8541488754398493e-06,2.107630490518173e-06,-0.018539202239148116,-0.015716791695523234,1.1700296677875543e-06,0.0
7.16666704043746,1.7962651252746582,2.0,-1.790319220162928e-05,0.0,1.595320463180542,1.5,0.00010260619183175907,0.00011951319403096146,-1.042028914942056,-0.8814546033643292,6.656174747581118e-05,0.0,1.7908158803971073e-06,2.0858987354151113e-06,-0.018186835466722815,-0.015384285035568232,1.1617216493339297e-06,0.0
7.200000375509262,1.8043986558914185,2.0,-1.697236621112097e-05,0.0,1.5951043367385864,1.5,8.864200712606789e-05,0.00011783488014406583,-1.022123106144918,-0.8626410166625812,6.610414833478513e-05,0.0,1.547094879926161e-06,2.056606632206839e-06,-0.017839413562940307,-0.015055926003513308,1.1537350376687274e-06,0.0
7.233333710581064,1.8123371601104736,2.0,-1.605787838343531e-05,0.0,1.5948877334594727,1.5,8.717447582629647e-05,0.00011635755288650731,-1.002268591335744,-0.8440681542487849,6.5785130013082e-05,0.0,1.5214816268690778e-06,2.0308224074329844e-06,-0.017492886908134248,-0.014731768402872662,1.1481671175808212e-06,0.0
7.266667045652866,1.8200857639312744,2.0,-1.5162793715717271e-05,0.0,1.5946720838546753,1.5,9.920911439925222e-05,0.00011529644926891339,-0.9823663187545801,-0.8257449110185285,6.554456102191758e-05,0.0,1.7315256942546673e-06,2.0123026556011475e-06,-0.017145526722963544,-0.014411967478860926,1.143968396606801e-06,0.0
7.3000003807246685,1.8276472091674805,2.0,-1.4286178156908136e-05,0.0,1.594456672668457,1.5,0.00010278289013887955,0.00011416658718764919,-0.9626379630713644,-0.8076762574814894,6.544928134016279e-05,0.0,1.79389984763906e-06,1.9925828421896515e-06,-0.016801201960286893,-0.014096609983237474,1.1423054524499275e-06,0.0
7.333333715796471,1.8350255489349365,2.0,-1.3427318663161714e-05,0.0,1.5942414999008179,1.5,9.131160118645441e-05,0.00011256303414250417,-0.9432750106143255,-0.7898691130448967,6.495665207543607e-05,0.0,1.5936880859715902e-06,1.96459556182149e-06,-0.01646325468700444,-0.01378581668244074,1.1337074497887673e-06,0.0
7.366667050868273,1.8422242403030396,2.0,-1.2585814147314522e-05,0.0,1.594026803970337,1.5,8.113265680455532e-05,0.00011084136776557555,-0.9241407272722973,-0.772327351424609,6.456569494264545e-05,0.0,1.4160319921300717e-06,1.9345468149232037e-06,-0.016129298442676545,-0.013479655185566744,1.1268839605874144e-06,0.0
7.400000385940075,1.8492469787597656,2.0,-1.1763952898036223e-05,0.0,1.593812108039856,1.5,8.920294581520039e-05,0.00010957681009778953,-0.9050269893148345,-0.7550513132198431,6.447415470754614e-05,0.0,1.5568851069533439e-06,1.912476120038997e-06,-0.0157957007829554,-0.01317813143719325,1.1252862820868817e-06,0.0
7.433333721011877,1.8560980558395386,2.0,-1.0956225196423475e-05,0.0,1.593597650527954,1.5,9.869998729912165e-05,0.00010850953862677915,-0.8860174716794996,-0.7380467597725371,6.390024123485666e-05,0.0,1.7226397500462582e-06,1.8938487188572627e-06,-0.015463922111002882,-0.012881345991706407,1.1152696023668957e-06,0.0
7.466667056083679,1.8627804517745972,2.0,-1.016845453705173e-05,0.0,1.593384027481079,1.5,9.287141417481888e-05,0.00010709771911288868,-0.8673614943996917,-0.7213162586853977,6.338441439534939e-05,0.0,1.6209119583339222e-06,1.869207819895968e-06,-0.015138313882292977,-0.012589343662227335,1.1062667256473375e-06,0.0
7.500000391155481,1.8692975044250488,2.0,-9.396273526363075e-06,0.0,1.593170404434204,1.5,7.9383822806339e-05,0.0001053325594057315,-0.8490724517900504,-0.7048630733943497,6.296112518271497e-05,0.0,1.3855090807903804e-06,1.8383999711825363e-06,-0.0148191098717172,-0.012302181406457845,1.0988789351986927e-06,0.0
7.5333337262272835,1.8756532669067383,2.0,-8.641165550216101e-06,0.0,1.5929572582244873,1.5,7.889999190536125e-05,0.00010382393692338797,-0.8309232228775859,-0.6886866556462564,6.306601054789945e-05,0.0,1.377064638545428e-06,1.8120695416960317e-06,-0.014502346070496545,-0.01201984965557557,1.1007095301583185e-06,0.0
7.566667061299086,1.8818506002426147,2.0,-7.903301593614742e-06,0.0,1.5927449464797974,1.5,9.027716572561502e-05,0.00010271901196740572,-0.8128408414089209,-0.672785569210001,6.384766097413818e-05,0.0,1.5756337812805579e-06,1.792784963226688e-06,-0.014186748977266734,-0.011742323342618703,1.1143519036958013e-06,0.0
7.600000396370888,1.8878940343856812,2.0,-7.180238299042685e-06,0.0,1.5925323963165283,1.5,9.190581529289837e-05,0.00010150815473909443,-0.795040061956249,-0.6571660003667487,6.416005173445471e-05,0.0,1.6040590785908332e-06,1.7716515178210834e-06,-0.013876066766396255,-0.011469710438562026,1.1198041510161334e-06,0.0
7.63333373144269,1.8937857151031494,2.0,-6.474938800238306e-06,0.0,1.5923203229904175,1.5,7.962727381089571e-05,9.986797772215972e-05,-0.7776611143735268,-0.6418260249402435,6.431011405375521e-05,0.0,1.3897581023871826e-06,1.7430250285600339e-06,-0.013572746910546243,-0.011201977360194492,1.122423232571106e-06,0.0
7.666667066514492,1.8995290994644165,2.0,-5.785042503703153e-06,0.0,1.5921084880828857,1.5,7.162792490201789e-05,9.820025389777768e-05,-0.760556936963179,-0.6267652151222501,6.50138061448556e-05,0.0,1.250143125911449e-06,1.7139177568106157e-06,-0.013274222698890437,-0.010939116640853818,1.1347049764810518e-06,0.0
7.700000401586294,1.9051282405853271,2.0,-5.1090542001475114e-06,0.0,1.5918974876403809,1.5,7.951425261438252e-05,9.697401547048378e-05,-0.7435433004409194,-0.6119821159170538,6.590243967020785e-05,0.0,1.387785510383484e-06,1.6925158588398599e-06,-0.012977278723839449,-0.010681102886074184,1.150214557342053e-06,0.0
7.733333736658096,1.9105852842330933,2.0,-4.4491657718026545e-06,0.0,1.591686487197876,1.5,8.704904188978237e-05,9.590574778941016e-05,-0.7267191928524227,-0.5974735576571448,6.666513967252917e-05,0.0,1.5192923916831692e-06,1.6738710705124806e-06,-0.012683642652710419,-0.010427880774721355,1.1635261835875285e-06,0.0
7.7666670717298985,1.9159044027328491,2.0,-3.8057464735175017e-06,0.0,1.5914759635925293,1.5,8.036212209226386e-05,9.449912232190097e-05,-0.7102946515720162,-0.5832441239607734,6.737447754405898e-05,0.0,1.4025836243996787e-06,1.6493208247620408e-06,-0.0123969803292376,-0.010179530306025447,1.1759064649548122e-06,0.0
7.800000406801701,1.921088695526123,2.0,-3.176293830620125e-06,0.0,1.5912659168243408,1.5,6.780623976661892e-05,9.282207176324678e-05,-0.694249097621445,-0.5692926895796361,6.78462953767701e-05,0.0,1.1834421373242116e-06,1.6200507707911147e-06,-0.01211693258249375,-0.009936031840698663,1.1841412396052449e-06,0.0
7.833333741873503,1.9261406660079956,2.0,-2.560796474426752e-06,0.0,1.5910561084747314,1.5,6.909150049824957e-05,9.145373212589434e-05,-0.6783743350621058,-0.5556131599598189,6.832334919866116e-05,0.0,1.2058741688377576e-06,1.5961687388337694e-06,-0.011839865707860957,-0.009697279008708764,1.1924673995064666e-06,0.0
7.866667076945305,1.9310637712478638,2.0,-1.9592071112128906e-06,0.0,1.5908467769622803,1.5,7.897677238172914e-05,9.041885223797824e-05,-0.6626276172080273,-0.5422045397197792,6.880542212193507e-05,0.0,1.3784047106592974e-06,1.5781066774269636e-06,-0.011565033634924712,-0.00946325443737052,1.2008811592523101e-06,0.0
7.900000412017107,1.9358606338500977,2.0,-1.37322581394983e-06,0.0,1.5906378030776978,1.5,7.885882390753402e-05,8.926998116504686e-05,-0.6471983582676284,-0.5290649629668123,6.884982757080059e-05,0.0,1.376346121436889e-06,1.5580550945233913e-06,-0.011295742265271979,-0.00923392556071274,1.2016561805408396e-06,0.0
7.933333747088909,1.9405343532562256,2.0,-8.005420113477157e-07,0.0,1.5904291868209839,1.5,6.749963337789286e-05,8.774374651617348e-05,-0.6321926152367671,-0.5161939820214829,6.89942608529477e-05,0.0,1.1780908463332923e-06,1.5314172747425312e-06,-0.011033842642675255,-0.009009284565255292,1.2041770168637687e-06,0.0
7.966667082160711,1.9450877904891968,2.0,-2.417910422991554e-07,0.0,1.5902206897735596,1.5,6.0885534961494744e-05,8.624489296526752e-05,-0.6174566983313674,-0.503588799306958,6.943761816530591e-05,0.0,1.0626530519162021e-06,1.5052573452740136e-06,-0.010776652374375738,-0.008789282624071356,1.2119150617272124e-06,0.0
8.000000417232513,1.9495235681533813,2.0,3.047837822123256e-07,0.0,1.5900124311447144,1.5,6.900761336541636e-05,8.51715758650662e-05,-0.6028454573331271,-0.49124392791765936,6.991024639460333e-05,0.0,1.2044100621697604e-06,1.4865244279575429e-06,-0.010521638111154061,-0.008573823972592848,1.220163980466323e-06,0.0
8.033333752304316,1.953844666481018,2.0,8.381800853385357e-07,0.0,1.5898048877716064,1.5,7.47254989809891e-05,8.41831254907984e-05,-0.5884578086897417,-0.47915683949796556,7.01529120199114e-05,0.0,1.3042059924139273e-06,1.4692727144339993e-06,-0.010270526270706893,-0.008362864482689513,1.2243992946093598e-06,0.0
8.066667087376118,1.958053708076477,2.0,1.3582321116700768e-06,0.0,1.5895977020263672,1.5,6.749744091571393e-05,8.289184903488758e-05,-0.5744629306593309,-0.46732736383774726,7.059095549050437e-05,0.0,1.1780525806495444e-06,1.4467356887248723e-06,-0.010026269570661203,-0.008156401183634173,1.23204459543807e-06,0.0
8.10000042244792,1.9621535539627075,2.0,1.8649698176886886e-06,0.0,1.5893903970718384,1.5,5.70447515984762e-05,8.138967214883123e-05,-0.560821545194732,-0.4557524760975567,7.165157875282577e-05,0.0,9.95618736375708e-07,1.4205177561158333e-06,-0.009788182479770258,-0.007954381282019122,1.250555963488822e-06,0.0
8.133333757519722,1.9661471843719482,2.0,2.3603356567036826e-06,0.0,1.5891838073730469,1.5,5.880148891970748e-05,8.018861725845644e-05,-0.5473508824788049,-0.4444288553262645,7.269036410595704e-05,0.0,1.0262795867238592e-06,1.3995553937816136e-06,-0.009553075062951688,-0.007756746816312853,1.2686861881224546e-06,0.0
8.166667092591524,1.970036506652832,2.0,2.843888069037348e-06,0.0,1.5889772176742554,1.5,6.758904885417982e-05,7.929391800060614e-05,-0.5340339182361519,-0.4333501866631558,7.29321606615891e-05,0.0,1.1796514407967386e-06,1.3839399459169762e-06,-0.009320650190547038,-0.007563387571404088,1.2729063341382157e-06,0.0
8.200000427663326,1.973824143409729,2.0,3.3146923215099378e-06,0.0,1.5887713432312012,1.5,6.658453776122601e-05,7.823376858540763e-05,-0.5210378270067749,-0.4225148283195354,7.334998218247332e-05,0.0,1.162119414851888e-06,1.3654368480586699e-06,-0.009093825608704854,-0.007374274892674473,1.2801986953633357e-06,0.0
8.233333762735128,1.9775127172470093,2.0,3.774012611756916e-06,0.0,1.588565468788147,1.5,5.5850628212765766e-05,7.685960681777969e-05,-0.5084225444668056,-0.41192153430355183,7.409346461964409e-05,0.0,9.747773516199988e-07,1.341453200758537e-06,-0.008873647392313035,-0.007189387033463747,1.2931749118227175e-06,0.0
8.26666709780693,1.9811042547225952,2.0,4.221049948682776e-06,0.0,1.58836030960083,1.5,5.1407970490100966e-05,7.5567158932147e-05,-0.49605316826811513,-0.40156380640312495,7.510420137563393e-05,0.0,8.972383468203449e-07,1.3188957297438074e-06,-0.008657761051228067,-0.007008610578575618,1.3108155960856666e-06,0.0
8.300000432878733,1.984601616859436,2.0,4.657940735341981e-06,0.0,1.5881553888320923,1.5,5.8510415564259294e-05,7.463238574062873e-05,-0.4838169956536379,-0.39143850543895564,7.606929138031508e-05,0.0,1.0211993983064605e-06,1.302580859792438e-06,-0.008444199551263076,-0.006831890738995507,1.32765959424544e-06,0.0
8.333333767950535,1.9880067110061646,2.0,5.084526947030099e-06,0.0,1.5879504680633545,1.5,6.256978368932824e-05,7.376792384322604e-05,-0.47180794301168766,-0.3815414085836691,7.6874934044952e-05,0.0,1.0920487376394226e-06,1.2874931534247237e-06,-0.00823460204261572,-0.00665915381248198,1.3417207113378948e-06,0.0
8.366667103022337,1.9913225173950195,1.9961838603798998,5.280160621623509e-06,0.12349087237039184,1.587746500968933,1.5,-0.011498800155632984,-0.3974020346178428,-0.4604152278394624,-0.38413090455941246,7.68129168368911e-05,0.0,-0.00020069192274463194,-0.006935973958205842,-0.008035761652118478,-0.006704349043225845,1.3406383068643378e-06,0.0
8.400000438094139,1.994550347328186,1.994781238517633,7.442651167366421e-06,0.14438770881920066,1.5875428915023804,1.5,-0.057200997173066946,-0.4645050732576495,-0.4504585674753895,-0.3791727781948858,9.432841180534417e-05,0.0,-0.0009983457360939869,-0.008107142920563446,-0.007861985146262587,-0.006617813413434918,1.6463413641803443e-06,0.0
8.433333773165941,1.9976929426193237,1.993159866390604,2.0375560779939406e-05,0.16526871152698433,1.587339162826538,1.5,-0.11159692681171823,-0.5294421197306503,-0.4412471697634069,-0.375081753850604,0.00015763472974550217,0.0,-0.0019477338079716211,-0.00924050818803788,-0.0077012159274778185,-0.0065464115688479586,2.751245049550456e-06,0.0
8.466667108237743,2.000751495361328,1.9913199218005564,5.449332093121484e-05,0.1861315906562495,1.587135910987854,1.5,-0.1670341130200361,-0.5919733263065391,-0.43264343251694837,-0.3718387079283807,0.00026754689938193,0.0,-0.002915295235347959,-0.01033188362803187,-0.0075510523845506465,-0.006489809739711787,4.669574297716661e-06,0.0
8.500000443309546,2.0037271976470947,1.98926160651817,0.00012040846922900528,0.2069740583569578,1.5869330167770386,1.5,-0.2235394508318207,-0.6520287002742897,-0.42476606357154206,-0.3694230774076219,0.00041568656216793304,0.0,-0.0039014994251152482,-0.011380047637285609,-0.007413566360058953,-0.0064476490336128804,7.25509916612653e-06,0.0
8.533333778381348,2.006622552871704,1.986985146260934,0.00022888663806952536,0.22779382901741413,1.5867303609848022,1.5,-0.2811136837659371,-0.7095379729116017,-0.4176517897876333,-0.36781609205047705,0.0005955853063711124,0.0,-0.004906359354125735,-0.012383773795233786,-0.0072893988586414295,-0.0064196018480993655,1.0394924572675073e-05,0.0
8.56666711345315,2.0094380378723145,1.9844907906683948,0.0003908353974111378,0.24858861951491,1.586527943611145,1.5,-0.3387536699072349,-0.7644320290594434,-0.41125945867891633,-0.3669850825607228,0.0008006135405146754,0.0,-0.005912366893095282,-0.013341855814788259,-0.007177831633916659,-0.006405097996387836,1.3973342318030103e-05,0.0
8.600000448524952,2.0121755599975586,1.9817788132747811,0.0006171903223730624,0.26935614946609343,1.5863256454467773,1.5,-0.3956500483439555,-0.8166580576960872,-0.40554731216849216,-0.36690212786143456,0.0010227620344554992,0.0,-0.006905396029276762,-0.01425337196973854,-0.007078135869953452,-0.0064036501637552545,1.785056496564415e-05,0.0
8.633333783596754,2.014835834503174,1.9788495114790057,0.0009188145631924272,0.29009414147703894,1.5861233472824097,1.5,-0.4519510998907415,-0.8661894087883036,-0.40054435659061205,-0.3675390061216369,0.0012538743223525653,0.0,-0.007888034751103223,-0.015117857129259005,-0.006990817822788429,-0.006414765786330158,2.1884235331264996e-05,0.0
8.666667118668556,2.0174200534820557,1.9757032065120546,0.0013064687373116612,0.3108003213929895,1.5859215259552002,1.5,-0.5079493096648781,-0.9130176524320528,-0.39630764288881265,-0.3688694841096651,0.0014900009929575532,0.0,-0.008865387886884377,-0.015935164163768535,-0.006916873219227672,-0.006437987007846559,2.6005423185094144e-05,0.0
8.700000453740358,2.0199289321899414,1.972340243401759,0.0017907851142808795,0.3314724185477429,1.5857194662094116,1.5,-0.5630820486554186,-0.9571381632749864,-0.39282463333665185,-0.37086381864184287,0.0017269857799771336,0.0,-0.009827635707911963,-0.016705212345639583,-0.006856083234664054,-0.006472794711819283,3.014158799572334e-05,0.0
8.73333378881216,2.0223631858825684,1.9687609909349595,0.0023822016082704067,0.3521081660126564,1.5855175256729126,1.5,-0.6164832374774886,-0.9985516181967249,-0.3900893245399174,-0.3734921585960568,0.0019601094777203887,0.0,-0.010759662277336277,-0.01742801348865017,-0.0068083430901022726,-0.006518667897882032,3.421036408576722e-05,0.0
8.766667123883963,2.0247232913970947,1.9649658416170646,0.003090885002166033,0.3727053008452406,1.585315465927124,1.5,-0.6680470608088617,-1.0372746218467424,-0.3880325733911625,-0.37672242695558766,0.0021836017879206596,0.0,-0.011659620769385409,-0.018103857398604758,-0.006772446010662324,-0.006575046716478843,3.8111040751650455e-05,0.0
8.800000458955765,2.0270097255706787,1.9609552116290077,0.00392669765278697,0.39326156433731707,1.5851131677627563,1.5,-0.7182551768050338,-1.0733410038666107,-0.3866316060721238,-0.3805256172115605,0.0023936129067242433,0.0,-0.012535917704741845,-0.018733334514133546,-0.006747994518232261,-0.006641424908525334,4.177642624056996e-05,0.0
8.833333794027567,2.0292227268218994,1.9567295407816088,0.0048992023803293705,0.4137747022627105,1.5849109888076782,1.5,-0.7670819167481833,-1.1067884089738023,-0.38593398933534306,-0.3848725562505667,0.0025896353005413412,0.0,-0.013388105079764833,-0.019317101859502403,-0.006735818809258418,-0.006717293307139471,4.5197662420319296e-05,0.0
8.866667129099369,2.0313620567321777,1.9522892924673434,0.006017651874572039,0.43424246512445086,1.5847084522247314,1.5,-0.8138392746976942,-1.137652936006695,-0.385944186604587,-0.38973299148943047,0.002769882191040148,0.0,-0.014204174925517343,-0.019855789478297175,-0.006735996785181438,-0.0068021239051376005,4.834356412600516e-05,0.0
8.900000464171171,2.0334277153015137,1.947634953609527,0.007290910929441452,0.45466260840145545,1.5845062732696533,1.5,-0.8581598637452913,-1.1659771404841484,-0.3866391521256375,-0.3950785554098026,0.0029319990993095036,0.0,-0.01497771513082125,-0.020350140104436858,-0.006748126221711607,-0.00689542159592391,5.117303794845904e-05,0.0
8.933333799242973,2.0354197025299072,1.9427670346089185,0.008727451786398888,0.4750328927946663,1.5843034982681274,1.5,-0.900410940979144,-1.191816933549327,-0.3879053728598809,-0.40087756172944333,0.0030729504295871415,0.0,-0.015715135541066398,-0.020801129571458223,-0.006770225942581174,-0.0069966333495456,5.3633102746869796e-05,0.0
8.966667134314775,2.0373377799987793,1.9376860692877484,0.01033534575253725,0.49535108447261433,1.584100604057312,1.5,-0.9409205199344122,-1.2152343189793027,-0.3897104967736706,-0.4071009476429462,0.0031915308539171186,0.0,-0.016422161072432433,-0.021209840049419847,-0.0068017312982832905,-0.0071052519243584595,5.570272157983988e-05,0.0
9.000000469386578,2.03918194770813,1.9323926148311794,0.012122283689677715,0.5156149553163847,1.5838979482650757,1.5,-0.9793499743878485,-1.236287604844644,-0.39215084148078694,-0.4137235615903897,0.0032903134497497474,0.0,-0.017092881582390095,-0.021577289206133637,-0.006844323348306087,-0.007220838342829847,5.7426803120786084e-05,0.0
9.03333380445838,2.040951728820801,1.926887251726205,0.014095534570515156,0.5358222831639543,1.5836948156356812,1.5,-1.015239166079746,-1.255034853143507,-0.39521908570377345,-0.42072009014096023,0.003368418890276692,0.0,-0.0177192661432931,-0.0219044904146377,-0.006897874312252497,-0.00734295080224709,5.8790000221701886e-05,0.0
9.066667139530182,2.0426459312438965,1.9211705836979927,0.01626194454729557,0.5559708520538775,1.583491563796997,1.5,-1.0487070403577816,-1.2715413762101655,-0.39883052157259485,-0.42806118702660745,0.0034253926126587824,0.0,-0.01830339074308834,-0.022192583590207284,-0.006960905758888053,-0.007471077113609535,5.978437926438655e-05,0.0
9.100000474601984,2.044264554977417,1.9152432376436777,0.018627915531396866,0.5760584524682918,1.5832880735397339,1.5,-1.0801769572643873,-1.2858800189991118,-0.40284938261173114,-0.43571777784550964,0.003459091227311111,0.0,-0.01885264440843764,-0.02244284011714174,-0.0070310481162011015,-0.007604709832877347,6.0372531043430486e-05,0.0
9.133333809673786,2.045806407928467,1.9091058635636182,0.021199440583586693,0.5960828815752149,1.5830843448638916,1.5,-1.1096527844180513,-1.2981210531281446,-0.40731605230248236,-0.44366389151034363,0.0034710325728191612,0.0,-0.019367094642017826,-0.02265648646654236,-0.007109006208903748,-0.007743395679066414,6.0580946839664195e-05,0.0
9.166667144745588,2.0472707748413086,1.902759134490114,0.023982103914022446,0.6160419434701114,1.5828807353973389,1.5,-1.1367617410738897,-1.3083301846631787,-0.4123506854175024,-0.4518791020496815,0.003463864495627183,0.0,-0.019840235192442636,-0.02283466942559789,-0.007196877133390785,-0.007886778151722399,6.045584029162707e-05,0.0
9.20000047981739,2.048656940460205,1.896203746413602,0.026981040835380554,0.6359334494166982,1.5826773643493652,1.5,-1.1614324041346704,-1.316576154795108,-0.41788418830490415,-0.4603411571905917,0.003438359959364314,0.0,-0.020270819491503403,-0.022978588754421166,-0.007293454977944559,-0.008034468875416595,6.001070215964571e-05,0.0
9.233333814889193,2.0499629974365234,1.889440418206332,0.03020097129046917,0.6557552180869637,1.5824737548828125,1.5,-1.1839893480953019,-1.3229327260525592,-0.42375793080901597,-0.46901996764958526,0.003393375913816804,0.0,-0.02066451243280427,-0.023089531852001324,-0.007395971124055647,-0.008185942693082553,5.922558245397457e-05,0.0
9.266667149960995,2.0511889457702637,1.8824698915435352,0.033646222203969955,0.6755050758003756,1.5822700262069702,1.5,-1.2046315419309646,-1.3274747928783508,-0.42991365632105866,-0.4778927392935323,0.003328699213715473,0.0,-0.02102478668007146,-0.023168805872956996,-0.007503408802089806,-0.008340801772047018,5.809676108788139e-05,0.0
9.300000485032797,2.052333116531372,1.8752929308220905,0.03732069581747055,0.6951808567622488,1.5820664167404175,1.5,-1.2231814430975851,-1.3302711074021591,-0.4364702594484108,-0.48693962244284134,0.0032481290923280625,0.0,-0.02134854353134853,-0.023217610768318787,-0.007617843114408657,-0.008498699670045655,5.669054719093958e-05,0.0
9.333333820104599,2.053394079208374,1.8679103230767002,0.04122791066765785,0.71478040330125,1.5818631649017334,1.5,-1.239477408351214,-1.331388476995885,-0.4434889734931975,-0.49614325868209375,0.003155799365046427,0.0,-0.02163296177981494,-0.023237112546690974,-0.007740342783746154,-0.008659333425576479,5.507908945240661e-05,0.0
9.366667155176401,2.054370641708374,1.8603228778935823,0.04537097364664078,0.7343015661060104,1.5816599130630493,1.5,-1.2537244858157153,-1.3308977475209531,-0.45081811951236694,-0.5054810050499552,0.0030508421945048664,0.0,-0.021881620190357175,-0.023228547701616833,-0.007868260513140097,-0.008822307844411802,5.324724125287917e-05,0.0
9.400000490248203,2.0552616119384766,1.8525314273216908,0.0497526191174984,0.7537422044608214,1.5814568996429443,1.5,-1.266161478265486,-1.3288716186522946,-0.4583121476632151,-0.5149289343872988,0.0029310290817966787,0.0,-0.022098686657651353,-0.023193185081789032,-0.007999055978609539,-0.008987205318844215,5.115610794905824e-05,0.0
9.433333825320005,2.056065320968628,1.8445368257814718,0.054375212639570236,0.7731001864803889,1.5812538862228394,1.5,-1.2767576428326668,-1.3253790313253018,-0.46605056707038534,-0.5244683032655936,0.0027982545983603305,0.0,-0.022283624617431816,-0.02313222793351958,-0.008134116876164887,-0.009153698714332735,4.883875605045929e-05,0.0
9.466667160391808,2.0567798614501953,1.8363399499711666,0.059240758419036865,0.7923733893436186,1.5810515880584717,1.5,-1.2853901339174005,-1.320481862396526,-0.4741219957250133,-0.5340837038361136,0.00265755549279784,0.0,-0.02243429000950948,-0.02304675621168608,-0.008274989881527962,-0.009321519113186452,4.638309340378276e-05,0.0
9.50000049546361,2.0574042797088623,1.8279416987706716,0.06435088813304901,0.8115596995264066,1.580849289894104,1.5,-1.2921614577291554,-1.3142457544650277,-0.48248212699726467,-0.5437599413107969,0.002509940223561271,0.0,-0.02255247190474329,-0.0229379155957717,-0.00842090169812769,-0.009490401316324535,4.380672092938673e-05,0.0
