time,x,x_target,y,y_target,z,z_target,roll_deg,roll_target_deg,pitch_deg,pitch_target_deg,yaw_deg,yaw_target_deg,roll_rad,roll_target_rad,pitch_rad,pitch_target_rad,yaw_rad,yaw_target_rad
0.01666666753590107,0.0,0.0,0.0,0.0,-0.002725000027567148,1.0,0.0,-0.0,0.0,0.0,0.0,0.0,0.0,-0.0,0.0,0.0,0.0,0.0
0.05000000260770321,7.34078492437007e-11,0.0,-1.0644263248593688e-14,0.0,-0.01586504466831684,1.0,-3.089432009349425e-10,-1.4065218209992495e-12,5.1061051063339346e-08,5.79498311442402e-10,4.746461950670395e-06,0.0,-5.39207605796517e-12,-2.4548436777583224e-14,8.911834605842232e-10,1.0114153544417445e-11,8.284138885983107e-08,0.0
0.08333333767950535,6.890528425618214e-11,0.0,1.9587130379553237e-14,0.0,-0.03696584701538086,1.0,-2.974263531266618e-10,5.575418709350828e-12,5.053484609370604e-07,-2.6045883224242e-10,1.5813213872818448e-05,0.0,-5.191069144259579e-12,9.73094136554647e-14,8.819994513237651e-09,-4.545864188529794e-12,2.759926474027258e-07,0.0
0.11666667275130749,-6.031373178672084e-10,0.0,-8.270960027978447e-10,0.0,-0.061787545680999756,1.0,6.532688036137826e-11,-2.6376254193348186e-09,7.444085687327734e-07,-2.809209564955065e-10,3.412521643491503e-05,0.0,1.1401691523624736e-12,-4.603524800168868e-11,1.2992380504445408e-08,-4.9029956286983386e-12,5.955973847449485e-07,0.0
0.15000000782310963,-4.328766511907389e-11,0.0,7.512857003177942e-11,0.0,-0.08638163655996323,1.0,-1.5156730078638778e-09,1.4541079751018777e-10,1.8062513550113689e-06,-4.960040662784846e-08,5.633118685128032e-05,0.0,-2.6453484370830572e-11,2.5378971845035495e-12,3.1525033263557365e-08,-8.656904059839734e-10,9.831646821109789e-07,0.0
0.18333334289491177,2.9878827190188417e-10,0.0,1.503756841270132e-10,0.0,-0.10988801717758179,1.0,-1.6304066585112329e-09,5.165377519361926e-10,1.3472013384330288e-06,-1.5739887144986875e-07,7.870353864773546e-05,0.0,-2.845596433745984e-11,9.015284482136275e-12,2.3513099042930778e-08,-2.7471285457235107e-09,1.3736358823735894e-06,0.0
0.2166666779667139,1.0470704303600087e-09,0.0,1.2044639730035556e-09,0.0,-0.13224659860134125,1.0,-1.0009020502972658e-08,4.142935576884856e-09,6.944127515485748e-07,-1.9538312238997091e-07,0.00010113446883161331,0.0,-1.7469036267649176e-10,7.230786651465141e-11,1.2119788882355982e-08,-3.410078788532045e-09,1.765129468367235e-06,0.0
0.25000001303851604,3.0229330150177702e-09,0.0,2.3248863945113385e-10,0.0,-0.15344299376010895,1.0,-2.65476069604957e-09,1.5338042962183707e-09,1.601251427686481e-06,-2.2969537959242182e-07,0.0001233511283544579,0.0,-4.633431499860142e-11,2.676993505024498e-11,2.794710956538898e-08,-4.0089406505059514e-09,2.1528833258354253e-06,0.0
0.2833333481103182,4.057617353225851e-09,0.0,2.4001350906743824e-10,0.0,-0.17347589135169983,1.0,-4.519524009229823e-09,1.8304741762581604e-09,6.726823337588946e-07,-3.3120800821079043e-07,0.0001454861898055106,0.0,-7.8880574583995e-11,3.194780124843592e-11,1.1740521544092115e-08,-5.780670252250706e-09,2.5392130282875685e-06,0.0
0.3166666831821203,4.871128833627836e-09,0.0,2.414332622713289e-11,0.0,-0.192353755235672,1.0,9.021523917637034e-09,1.2476235912956731e-09,1.7537535209993178e-07,-3.1596620481671053e-07,0.00016770632117101374,0.0,1.5745529591018397e-10,2.1775139493665564e-11,3.060877320988161e-09,-5.514650599082365e-09,2.927027480841262e-06,0.0
0.35000001825392246,6.684357511943517e-09,0.0,2.9825350522649785e-11,0.0,-0.21009300649166107,1.0,-2.176805498603895e-08,3.4483619889321807e-10,1.568460196551173e-06,-3.44006845004549e-07,0.00018972971044625833,0.0,-3.7992423126154793e-10,6.018527050748682e-12,2.7374794616295378e-08,-6.004052094727187e-09,3.311408136142688e-06,0.0
0.3833333533257246,8.523965533413502e-09,0.0,-6.342022462746399e-10,0.0,-0.22671665251255035,1.0,-2.47704893211904e-08,-4.1620663643090506e-10,-1.7728482274559946e-07,-4.418745185528426e-07,0.0002119263010256914,0.0,-4.323265959848677e-10,-7.264176174370274e-12,-3.094203870725244e-09,-7.712165229411872e-09,3.698811724470951e-06,0.0
0.41666668839752674,9.587294513835332e-09,0.0,-3.119611236002129e-10,0.0,-0.24225293099880219,1.0,-1.6809596822402546e-08,1.257094895041724e-09,-7.706977272014275e-07,-3.8449733557068856e-07,0.00023402225376588492,0.0,-2.933828104837009e-10,2.1940444928490626e-11,-1.3451212877301973e-08,-6.710744470854026e-09,4.084458851152391e-06,0.0
0.4500000234693289,1.165554586179951e-08,0.0,2.4186441738294207e-10,0.0,-0.2567339241504669,1.0,-1.7633032569143523e-08,4.111694574670304e-09,8.215044903771185e-07,-3.723708560537813e-07,0.0002565375373487834,0.0,-3.0775447544294915e-10,7.176260816438465e-11,1.4337958176998791e-08,-6.499097476608343e-09,4.477424681694195e-06,0.0
0.483333358541131,1.2627602075099276e-08,0.0,-1.7475096369956589e-10,0.0,-0.270194947719574,1.0,-1.430127251006642e-08,3.5540021865782226e-09,2.1909232442319037e-06,-4.2938346536856073e-07,0.0002786904986562734,0.0,-2.496042925256129e-10,6.202903977886781e-11,3.8238824270322584e-08,-7.494155224304432e-09,4.864066795576804e-06,0.0
0.5166666936129332,1.4809419468519991e-08,0.0,1.669362703626831e-10,0.0,-0.28267356753349304,1.0,-1.658861939835426e-08,5.453383286593713e-09,3.940488471744551e-06,-5.580028935030475e-07,0.000300810135485702,0.0,-2.8952602686148266e-10,9.517949372428984e-11,6.877449796882196e-08,-9.738987727283454e-09,5.250127287595732e-06,0.0
0.5500000286847353,1.7336089896957674e-08,0.0,2.9002483747930796e-10,0.0,-0.2942087948322296,1.0,-1.998715040296164e-08,6.5707949896611396e-09,5.029899605566588e-06,-7.725157145278581e-07,0.00032282320694000617,0.0,-3.48841582622992e-10,1.1468200704313364e-10,8.778830916190106e-08,-1.3482942741907715e-08,5.634327862950116e-06,0.0
0.5833333637565374,2.1518731685432613e-08,0.0,5.707169181690119e-10,0.0,-0.3048408329486847,1.0,-7.119245832248405e-09,8.16134975172973e-09,7.55117462890026e-06,-1.040449396977726e-06,0.00034457713433117687,0.0,-1.2425428003161856e-10,1.4244242457450556e-10,1.317928596673705e-07,-1.8159267677650855e-08,6.014005521165825e-06,0.0
0.6166666988283396,2.6851923351500773e-08,0.0,-4.995270863616952e-10,0.0,-0.3146101236343384,1.0,6.497818293403869e-10,5.099341889584227e-09,9.476041820442517e-06,-1.4406387959921227e-06,0.0003667620913071747,0.0,1.1340832341621646e-11,8.90003056581139e-11,1.6538812982339924e-07,-2.514389032202943e-08,6.4012060648102715e-06,0.0
0.6500000339001417,3.4841839635646465e-08,0.0,2.352980310593722e-10,0.0,-0.3235572576522827,1.0,1.0638849397816884e-09,7.347731244195077e-09,1.0921647380763769e-05,-1.9224511906488077e-06,0.00038900650602996886,0.0,1.8568295061572063e-11,1.2824210276286357e-10,1.9061870653614257e-07,-3.355310298570692e-08,6.789444341902132e-06,0.0
0.6833333689719439,4.449732671218953e-08,0.0,9.697236347250282e-10,0.0,-0.331722617149353,1.0,2.191580683566781e-09,9.64844707757944e-09,1.2553825395543207e-05,-2.4801172889235363e-06,0.0004110881805736338,0.0,3.8250298751348314e-11,1.6839716920818598e-10,2.1910558687270843e-07,-4.32862125273512e-08,7.174842267042901e-06,0.0
0.716666704043746,5.662302271502995e-08,0.0,-4.773909045852065e-10,0.0,-0.3391459584236145,1.0,1.1102265380333448e-08,4.9666385055573745e-09,1.3826360709510485e-05,-3.117402485717445e-06,0.0004333553414033498,0.0,1.9377108531699915e-10,8.668419467830688e-11,2.413155179493372e-07,-5.440893748562492e-08,7.563477538592557e-06,0.0
0.7500000391155481,7.194172013669231e-08,0.0,-3.493118017061647e-10,0.0,-0.3458664119243622,1.0,2.3090308511760726e-08,4.72296807959457e-09,1.5486326447187852e-05,-3.819246491860968e-06,0.0004551473353030521,0.0,4.0300190883149647e-10,8.243134345551886e-11,2.7028738554210374e-07,-6.66584262282167e-08,7.943819582716882e-06,0.0
0.7833333741873503,9.096058306568011e-08,0.0,2.1996700294568683e-10,0.0,-0.35192203521728516,1.0,4.7316486928172835e-08,5.079912945498626e-09,1.793015341804062e-05,-4.611752073508826e-06,0.0004767570737531834,0.0,8.258284873734736e-10,8.866120661363429e-11,3.129402125325241e-07,-8.049025796840457e-08,8.32098066916649e-06,0.0
0.8166667092591524,1.1214822848160111e-07,0.0,1.6929563306788964e-10,0.0,-0.357349693775177,1.0,1.9615785712060192e-08,2.951093260761956e-09,1.9951441727867618e-05,-5.5292250049807075e-06,0.0004987746266821607,0.0,3.423600460411107e-10,5.1506293933711715e-11,3.4821834867107643e-07,-9.650318142051321e-08,8.705259461009265e-06,0.0
0.8500000443309546,1.381047525228496e-07,0.0,1.862997534018973e-10,0.0,-0.36218541860580444,1.0,1.8486878782606675e-08,2.3129222517128907e-09,2.2204898816730953e-05,-6.546427551788889e-06,0.0005204300136704403,0.0,3.226569031735675e-10,4.0368108635031e-11,3.875485944241481e-07,-1.142567150219877e-07,9.083217264748282e-06,0.0
0.8833333794027567,1.6775258870893595e-07,0.0,1.208474431635409e-10,0.0,-0.366463303565979,1.0,1.8546970808543344e-08,1.2088665617318759e-09,2.462549287847276e-05,-7.681977413217887e-06,0.0005421069742851036,0.0,3.237057068803562e-10,2.1098701719484518e-11,4.297959306557655e-07,-1.340757989244891e-07,9.461551599299292e-06,0.0
0.9166667144745588,2.0293718705488573e-07,0.0,2.751235628206672e-10,0.0,-0.3702169358730316,1.0,2.4984485877268992e-08,1.4595823517102447e-09,2.76115999126652e-05,-8.939391386866896e-06,0.0005631764340977377,0.0,4.360615404763678e-10,2.5474517741345657e-11,4.819133302193865e-07,-1.560218128252495e-07,9.829283044646383e-06,0.0
0.950000049546361,2.429230221423495e-07,0.0,2.715822566834447e-10,0.0,-0.37347787618637085,1.0,-7.151044819984684e-09,2.51168261978838e-10,3.115932164991188e-05,-1.0353389025598669e-05,0.0005836790390588738,0.0,-1.2480927706641792e-10,4.3837131480424116e-12,5.438327554789142e-07,-1.8070072723654423e-07,1.0187121006453932e-05,0.0
0.9833333846181631,2.9073422069814114e-07,0.0,7.227623499694857e-10,0.0,-0.3762766718864441,1.0,-1.8912333561329252e-09,2.5150381964896017e-09,3.4898421196917984e-05,-1.1948939466882284e-05,0.0006042372456212538,0.0,-3.300824898806204e-11,4.3895697342163644e-11,6.090923536339992e-07,-2.085483358185918e-07,1.0545929399272569e-05,0.0
1.0166667196899652,3.427246326737077e-07,0.0,-1.0261086424989685e-10,0.0,-0.37864217162132263,1.0,2.724078639665207e-08,-1.1078999959197434e-10,3.868422112880185e-05,-1.373596750256178e-05,0.0006249500631789691,0.0,4.754414134540606e-10,-1.9336502711631265e-12,6.751670272671497e-07,-2.397378588666457e-07,1.0907436263019592e-05,0.0
1.0500000547617674,4.0524832911614794e-07,0.0,-3.474215359844379e-11,0.0,-0.380602091550827,1.0,1.911348180512014e-08,-1.3142278080859714e-09,4.261354580024328e-05,-1.57178110787298e-05,0.0006455487593695981,0.0,3.335931890193756e-10,-2.2937602372368357e-11,7.437466801636471e-07,-2.7432755453027663e-07,1.1266951333164082e-05,0.0
1.0833333898335695,4.746895285734354e-07,0.0,4.772530703966993e-10,0.0,-0.3821827173233032,1.0,1.5465090770088523e-08,-5.173476057941627e-10,4.6754043809296814e-05,-1.7889603047487442e-05,0.0006656105640895631,0.0,2.699167530578301e-10,-9.029419098417834e-12,8.160120030939013e-07,-3.1223247505346733e-07,1.1617095879419608e-05,0.0
1.1166667249053717,5.536260232474888e-07,0.0,-1.4369180845186236e-10,0.0,-0.38340890407562256,1.0,4.735582504408962e-08,-2.70014022143845e-09,5.126432541300388e-05,-2.0295190722782383e-05,0.0006855125989278519,0.0,8.265150670177527e-10,-4.712633712962973e-11,8.947312672707196e-07,-3.542179004327603e-07,1.1964451915194364e-05,0.0
1.1500000599771738,6.424385219361284e-07,0.0,3.432323036900442e-10,0.0,-0.3843042552471161,1.0,1.595699449816565e-08,-5.256987405168346e-09,5.560385201479911e-05,-2.2922808722355154e-05,0.0007041133376261028,0.0,2.7850209271561087e-10,-9.175173895606081e-11,9.704702944499273e-07,-4.0007848600997215e-07,1.2289096048781967e-05,0.0
1.183333395048976,7.424750947393477e-07,0.0,3.7200376112878075e-10,0.0,-0.3848910927772522,1.0,-2.8089094986395967e-08,-3.648211381339015e-09,5.974596244034783e-05,-2.577230260504472e-05,0.0007208393073656773,0.0,-4.902471914180414e-10,-6.367330041309622e-11,1.0427637593569358e-06,-4.498115362783421e-07,1.2581019291326481e-05,0.0
1.216666730120778,8.53354606533685e-07,0.0,-1.1521840426187424e-10,0.0,-0.3851906657218933,1.0,1.0554591051948987e-09,-5.352605490125775e-09,6.274852638125833e-05,-2.8834868166399514e-05,0.0007356224001513737,0.0,1.8421236505804167e-11,-9.34205893630196e-11,1.0951683861274804e-06,-5.032633888821717e-07,1.2839032934064704e-05,0.0
1.2500000651925802,9.77196691565041e-07,0.0,5.99527039124581e-10,0.0,-0.38522276282310486,1.0,-5.590466230943271e-09,-2.3713748195883724e-09,6.488961761937824e-05,-3.2054573503264886e-05,0.0007477115515000537,0.0,-9.757204245151779e-11,-4.138829840070362e-11,1.132537477818275e-06,-5.594578479545056e-07,1.3050028428871084e-05,0.0
1.2833334002643824,1.1139605931020924e-06,0.0,8.673080031940117e-10,0.0,-0.38500598073005676,1.0,-3.641082534002668e-08,-1.2527510832800022e-09,6.619903661395883e-05,-3.539778793328711e-05,0.0007571108781229611,0.0,-6.354887855520495e-10,-2.1864631111161724e-11,1.15539115056186e-06,-6.17807947358579e-07,1.3214077625911178e-05,0.0
1.3166667353361845,1.2620196230272995e-06,0.0,9.221510222090501e-10,0.0,-0.3845580816268921,1.0,-1.5419693907615678e-08,1.70639556172628e-10,6.680354094302688e-05,-3.882333122814912e-05,0.0007639539385269806,0.0,-2.6912442833760394e-10,2.9782220893541724e-12,1.1659417414466566e-06,-6.77594956523536e-07,1.333351156087417e-05,0.0
1.3500000704079866,1.425096343155019e-06,0.0,6.802881036271913e-10,0.0,-0.3838956952095032,1.0,-3.465067148514193e-08,-3.826412340560429e-10,6.683795986501638e-05,-4.231198335756848e-05,0.0007686641802083624,0.0,-6.0476830544264e-10,-6.678349388172205e-12,1.1665424649603605e-06,-7.384834226386151e-07,1.3415720786778956e-05,0.0
1.3833334054797888,1.6000922187231481e-06,0.0,-7.620513942097062e-11,0.0,-0.3830341696739197,1.0,-8.892710029671795e-09,-9.656226690736662e-10,6.624914691204414e-05,-4.5833340182389975e-05,0.0007714510862524386,0.0,-1.5520706944289546e-10,-1.6853294907231097e-11,1.1562657402526046e-06,-7.999426933693234e-07,1.3464361473191816e-05,0.0
1.416666740551591,1.7879405049825436e-06,0.0,7.558237369309495e-11,0.0,-0.38198840618133545,1.0,7.274476911446806e-08,5.060336326081634e-10,6.510423298431034e-05,-4.935591367283195e-05,0.0007719100730101349,0.0,1.2696357346505475e-09,8.831953014839793e-12,1.1362832225617092e-06,-8.614231989210049e-07,1.3472372303336671e-05,0.0
1.450000075623393,1.9881629214069108e-06,0.0,4.267312059269557e-10,0.0,-0.38077184557914734,1.0,1.1408079894307831e-07,-3.4781271038052117e-09,6.36527093799085e-05,-5.286239884307242e-05,0.0007704716749633389,0.0,1.9910855548623838e-09,-6.070476976425554e-11,1.1109493564944814e-06,-9.22622910314055e-07,1.3447267521465824e-05,0.0
1.4833334106951952,2.200249582529068e-06,0.0,-2.0420942714594048e-11,0.0,-0.3793973922729492,1.0,9.127055234897992e-08,-1.05671144915875e-08,6.21282254034109e-05,-5.6337371492230064e-05,0.0007674925864736758,0.0,1.5929716486035442e-09,-1.844309403134085e-10,1.0843420917107024e-06,-9.832726244586056e-07,1.3395272618612937e-05,0.0
1.5166667457669973,2.424934564260184e-06,0.0,-5.787624823838655e-10,0.0,-0.3778770864009857,1.0,4.023241502204417e-08,-1.5699416413360314e-08,6.0250252019155e-05,-5.978380456839902e-05,0.000763312409787547,0.0,7.021881081634977e-10,-2.7400650705477657e-10,1.0515652728906164e-06,-1.0434242290873905e-06,1.3322314772124887e-05,0.0
1.5500000808387995,2.662375663931016e-06,0.0,-1.7420198616946436e-10,0.0,-0.37622183561325073,1.0,7.094165447065778e-08,-1.536940758498528e-08,5.805023049208197e-05,-6.318145452728539e-05,0.0007573790894199654,0.0,1.2381654473251333e-09,-2.6824676643898334e-10,1.0131676536284385e-06,-1.1027244077002076e-06,1.3218758796134947e-05,0.0
1.5833334159106016,2.9095201625750633e-06,0.0,-2.0468127193140617e-11,0.0,-0.3744422495365143,1.0,6.575942390397376e-08,-1.841909282282699e-08,5.59219323915896e-05,-6.65106683564679e-05,0.0007503317048989488,0.0,1.1477184613390054e-09,-3.2147381498878753e-10,9.760218443109054e-07,-1.1608301505223706e-06,1.3095758732589122e-05,0.0
1.6166667509824038,3.1688430226495257e-06,0.0,-4.3859138543211884e-11,0.0,-0.3725481331348419,1.0,9.38564199996042e-08,-2.1931166835662916e-08,5.358780852559635e-05,-6.979180254247053e-05,0.0007413797444048517,0.0,1.6381035531277484e-09,-3.8277107008650404e-10,9.352836976999443e-07,-1.2180967452678604e-06,1.293951754745867e-05,0.0
1.650000086054206,3.437173972997698e-06,0.0,-4.811249176839283e-10,0.0,-0.37054866552352905,1.0,6.40771988238172e-08,-2.7958965922297457e-08,5.070161972153312e-05,-7.298875436773992e-05,0.0007309792764342857,0.0,1.118358094930648e-09,-4.879760107969837e-10,8.849102002348434e-07,-1.2738940806464538e-06,1.275799513762408e-05,0.0
1.683333421126008,3.715871343956678e-06,0.0,-5.665725111292375e-10,0.0,-0.3684521019458771,1.0,3.85731059402276e-08,-2.9793287640987368e-08,4.7829819816671064e-05,-7.608804749057694e-05,0.0007195984070155051,0.0,6.732277013775547e-10,-5.199909643289638e-10,8.347878364365406e-07,-1.3279869501243765e-06,1.2559361494526826e-05,0.0
1.7166667561978102,4.002451987616951e-06,0.0,-6.310019173838555e-11,0.0,-0.3662664592266083,1.0,-1.7303620233741973e-08,-2.987079426197054e-08,4.525735089921494e-05,-7.909052963269521e-05,0.000707514101889562,0.0,-3.0200514559350825e-10,-5.213437100572155e-10,7.898897839217172e-07,-1.3803901492366728e-06,1.2348450582263491e-05,0.0
1.7500000912696123,4.299392003304092e-06,0.0,-4.208938753080815e-12,0.0,-0.3639991283416748,1.0,-6.26231994084806e-08,-2.8232255543070283e-08,4.250781793218467e-05,-8.20179662594699e-05,0.0006935249602304318,0.0,-1.092981017810952e-09,-4.927458144909962e-10,7.419013807549101e-07,-1.4314835570173675e-06,1.2104294000783767e-05,0.0
1.7833334263414145,4.603433808370028e-06,0.0,-9.729017591553202e-10,0.0,-0.3616567850112915,1.0,2.4333769437956556e-08,-2.7499357545052475e-08,3.971512714710992e-05,-8.484370565991512e-05,0.0006784421816861066,0.0,4.247043961135119e-10,-4.799543313443106e-10,6.931597315652504e-07,-1.4808020133584672e-06,1.1841049854836135e-05,0.0
1.8166667614132166,4.915844783681678e-06,0.0,-8.227210024358556e-10,0.0,-0.3592459261417389,1.0,1.0038331332995368e-07,-3.0519037613013016e-08,3.689254473125401e-05,-8.757765671467204e-05,0.0006620020364385519,0.0,1.7520193316688047e-09,-5.326576908870681e-10,6.438963749996691e-07,-1.5285184608523473e-06,1.1554115190760206e-05,0.0
1.8500000964850187,5.235383014223771e-06,0.0,-1.090927015390264e-09,0.0,-0.35677236318588257,1.0,1.4250855912413944e-07,-3.6713253955608294e-08,3.431644055671516e-05,-9.021023174515691e-05,0.0006440483501889442,0.0,2.4872435689892396e-09,-6.407671606461968e-10,5.989348752795954e-07,-1.5744655629400983e-06,1.124076425283452e-05,0.0
1.8833334315568209,5.560388672165573e-06,0.0,-1.3407993604275248e-09,0.0,-0.3542414903640747,1.0,1.1398392487630344e-07,-4.4306671105984956e-08,3.153336480814117e-05,-9.275573048218046e-05,0.0006242097855876283,0.0,1.9893947834373653e-09,-7.73297291397675e-10,5.503610401345735e-07,-1.6188928970065165e-06,1.0894515981671961e-05,0.0
1.916666766628623,5.892109129490564e-06,0.0,-1.1839633717869447e-09,0.0,-0.35165831446647644,1.0,1.428270144414109e-07,-4.784105677394819e-08,2.8682548735081646e-05,-9.51956422688737e-05,0.0006033027011890113,0.0,2.49280166279611e-09,-8.349839583389324e-10,5.006049132909095e-07,-1.6614773911425312e-06,1.0529618521923756e-05,0.0
1.9500001017004251,6.229140581126558e-06,0.0,-1.3045405866662918e-09,0.0,-0.34902775287628174,1.0,9.177141217128144e-08,-5.457281347943615e-08,2.5808912064884342e-05,-9.753241557451817e-05,0.0005818648743035112,0.0,1.6017133015936595e-09,-9.524752772929037e-10,4.504504918899202e-07,-1.7022617791987389e-06,1.0155457858299218e-05,0.0
1.9833334367722273,6.571673111466225e-06,0.0,-1.6849288630993442e-09,0.0,-0.3463539183139801,1.0,-4.2898755339650185e-09,-5.921955878111545e-08,2.2943559490290025e-05,-9.976137530846761e-05,0.0005597601409708962,0.0,-7.487245256843941e-11,-1.0335762823087846e-09,4.004406552327529e-07,-1.7411644654505335e-06,9.769657481369747e-06,0.0
2.0166667718440294,6.911893251526635e-06,0.0,0.0005320286727510393,0.0,-0.3436409831047058,1.0,-0.179054017936746,0.24408240275255846,2.0255660152178895e-05,-0.00010182792060617822,0.0005375572910097013,0.0,-0.0031250821519212013,0.0042600415742110155,3.5352796182053736e-07,-1.77723248503719e-06,9.3821446462206e-06,0.0
2.0500001069158316,7.236793408083031e-06,0.0,0.0032433399464935064,0.0,-0.34087857604026794,1.0,-0.6978795382286632,0.7552355775084426,1.7216392773292012e-05,-0.00010361724784499338,0.0005170104894085798,0.0,-0.012180295724387809,0.013181347455723157,3.004827392105033e-07,-1.8084621367501334e-06,9.023535307526987e-06,0.0
2.0833334419876337,7.54459233576199e-06,0.0,0.008243201300501823,0.0,-0.33804944157600403,1.0,-1.1438230170217663,1.2983609969547438,1.832757666786086e-05,-0.00010513555550799262,0.0004973193077750648,0.0,-0.019963477707124967,0.02266067427633635,3.198765567658632e-07,-1.8349616045277308e-06,8.679859354413917e-06,0.0
2.116666777059436,7.835198630345985e-06,0.0,0.015618591569364071,0.0,-0.33517518639564514,1.0,-1.4441863532833588,1.8667453165594043,-3.4314178680485057e-06,-0.00010655489462142743,0.00047718814518749676,0.0,-0.02520580687716463,0.03258085207014543,-5.988953980921075e-08,-1.8597337452595053e-06,8.328504285006552e-06,0.0
2.150000112131238,8.104446351353545e-06,0.0,0.025426091626286507,0.0,-0.33227798342704773,1.0,-1.6291848217852938,2.4541368906958643,-1.4776256253968752e-05,-0.0001063683619169501,0.0004560707093095401,0.0,-0.02843463926367042,0.042832769037299025,-2.5789432275015816e-07,-1.8564781354037263e-06,7.95993549935743e-06,0.0
2.18333344720304,8.351030373887625e-06,0.0,0.037700552493333817,0.0,-0.32937079668045044,1.0,-1.7066330877336955,3.055647595414616,-2.460594542110849e-05,-0.00010577592493875861,0.00043502085039116823,0.0,-0.029786366504430235,0.05333111132063263,-4.2945476316436573e-07,-1.846138159523719e-06,7.592546154151548e-06,0.0
2.2166667822748423,8.57553823152557e-06,0.0,0.052456311881542206,0.0,-0.32645922899246216,1.0,-1.6929197825324245,3.6667223410897063,-3.108192462147257e-05,-0.00010414867742171252,0.00040993786987760086,0.0,-0.029547024177337195,0.06399637760844994,-5.424819225013885e-07,-1.8177373326063624e-06,7.154765557976219e-06,0.0
2.2500001173466444,8.775319656706415e-06,0.0,0.06969045102596283,0.0,-0.3235441744327545,1.0,-1.598275090242097,4.283391146479692,-3.7328643251184407e-05,-0.00010195307619474622,0.0003840865593203877,0.0,-0.027895162677334086,0.07475927865684535,-6.515077300355286e-07,-1.779416862134973e-06,6.703575072797279e-06,0.0
2.2833334524184465,8.961868843471166e-06,0.0,0.08777683973312378,0.0,-0.3205929100513458,1.0,-0.9954784453203982,4.409977979771788,-4.743250352894604e-05,-9.934040728297546e-05,0.0003567083958420766,0.0,-0.017374376503475286,0.07696863568746559,-8.278533590439379e-07,-1.733817187360076e-06,6.225735976951487e-06,0.0
2.3166667874902487,9.138266250374727e-06,0.0,0.10605613887310028,0.0,-0.31763795018196106,1.0,-0.2666642423444331,4.5040253197117455,-7.432180343730916e-05,-9.535710066085789e-05,0.0003256781656360767,0.0,-0.0046541690262464405,0.07861007142216021,-1.297160176001084e-06,-1.6642953716876308e-06,5.684156292204991e-06,0.0
2.350000122562051,9.299207704316359e-06,0.0,0.12438441067934036,0.0,-0.31467774510383606,1.0,0.37862677334227374,4.566803809479184,8.75785905835454e-06,-9.00038379155377e-05,0.0002906062068851511,0.0,0.0066082838310249714,0.0797057627680316,1.5285347599389692e-07,-1.5708633110574429e-06,5.072035136877702e-06,0.0
2.383333457633853,9.46238014876144e-06,0.0,0.1426388919353485,0.0,-0.31171277165412903,1.0,0.9517378621101288,4.60258459766013,-1.8926569039795406e-07,-9.007117464583066e-05,0.0002533455893917183,0.0,0.016610959309713534,0.08033025533074777,-3.3033094585045153e-09,-1.5720385587085825e-06,4.421714680291103e-06,0.0
2.416666792705655,9.63079492066754e-06,0.0,0.16071058809757233,0.0,-0.3087450861930847,1.0,1.4540168862206517,4.614004004602114,-8.495866810977547e-05,-8.664950223183213e-05,0.00021561590351765016,0.0,0.025377382044146142,0.08052956158051049,-1.482808486624689e-06,-1.5123191091596457e-06,3.763207436045419e-06,0.0
2.4500001277774572,9.778987987374421e-06,0.0,0.17850390076637268,0.0,-0.30577725172042847,1.0,1.8826835794137584,4.603890466045008,-1.4908585398201578e-05,-7.997033027729698e-05,0.0001798033676020983,0.0,0.03285902723400222,0.08035304703366158,-2.6020390201336743e-07,-1.3957455672461421e-06,3.138160770830317e-06,0.0
2.4833334628492594,9.92628247331595e-06,0.0,0.19593775272369385,0.0,-0.30281156301498413,1.0,2.258468985456651,4.5749528948090905,1.5415445269400907e-05,-7.861865502653492e-05,0.00014049599888619316,0.0,0.03941771985039449,0.07984799113806443,2.690502756120301e-07,-1.3721543837026244e-06,2.4521177664423567e-06,0.0
2.5166667979210615,1.0080865649797488e-05,0.0,0.2129407674074173,0.0,-0.2998502850532532,1.0,2.5843877349013002,4.529108038757732,-7.126466000100007e-05,-7.61785004813033e-05,9.728520987221612e-05,0.0,0.04510607512218606,0.07904784745486537,-1.2438029573317569e-06,-1.3295656526308274e-06,1.6979472257638634e-06,0.0
2.5500001329928637,1.0220009244221728e-05,0.0,0.2294507920742035,0.0,-0.2968953847885132,1.0,2.855435020709843,4.468369251253034,-6.0087949368878666e-05,-6.928115006760952e-05,5.801458290423432e-05,0.0,0.04983674268813923,0.07798775562923921,-1.0487325572585814e-06,-1.2091841782480782e-06,1.012545485850103e-06,0.0
2.583333468064666,1.0347153875045478e-05,0.0,0.2454165369272232,0.0,-0.2939482629299164,1.0,3.0830210587581037,4.394842914682479,-6.414982496052958e-06,-6.497009515967281e-05,1.825744360328051e-05,0.0,0.05380886838365047,0.0767044789691535,-1.1196256601392826e-07,-1.1339420758703216e-06,3.1865250387442227e-07,0.0
2.616666803136468,1.0475328053871635e-05,0.0,0.2607947885990143,0.0,-0.2910098433494568,1.0,3.2746297888958287,4.310123143525041,-4.336373182287072e-05,-6.232066215345957e-05,-2.585078035732907e-05,0.0,0.05715307160011906,0.07522584002092007,-7.568398962609365e-07,-1.0877007466008891e-06,-4.511812314452685e-07,0.0
2.65000013820827,1.0594368177407887e-05,0.0,0.275549054145813,0.0,-0.28808072209358215,1.0,3.427620141043042,4.215643599473925,-5.721912711083376e-05,-5.690060667691153e-05,-6.724995581759339e-05,0.0,0.05982325696887351,0.07357686090144508,-9.986621632011995e-07,-9.931029328943754e-07,-1.1737331508377197e-06,0.0
2.683333473280072,1.0701081009756308e-05,0.0,0.2896502614021301,0.0,-0.28516101837158203,1.0,3.546347060770055,4.11294520322173,-3.967786072573905e-05,-5.187013210156178e-05,-0.00010887213190228487,0.0,0.061895432628860894,0.07178443575032648,-6.925093098118932e-07,-9.053045886166589e-07,-1.9001771653604283e-06,0.0
2.7166668083518744,1.079953017324442e-05,0.0,0.3030758202075958,0.0,-0.2822505235671997,1.0,3.635935262176399,4.0033498439030755,-2.4650938925354264e-05,-4.7449457557313455e-05,-0.0001541545594183669,0.0,0.06345904171434141,0.0698716358853097,-4.302400479554646e-07,-8.281492626604258e-07,-2.690504618811737e-06,0.0
2.7500001434236765,1.0889895747823175e-05,0.0,0.31580862402915955,0.0,-0.2793486416339874,1.0,3.6993222050624577,3.888014596925349,-1.2640027043835254e-05,-4.336251148643765e-05,-0.0002040588967586679,0.0,0.06456535257047673,0.06785865608194754,-2.2061008945605082e-07,-7.568185973721975e-07,-3.56149961642594e-06,0.0
2.7833334784954786,1.0977907550113741e-05,0.0,0.32783663272857666,0.0,-0.2764546871185303,1.0,3.739164331622957,3.767992068928015,-2.5507328573828755e-06,-3.943563500689639e-05,-0.00025976619715243113,0.0,0.06526072885995372,0.06576386779182698,-4.451868670013413e-08,-6.882816734850787e-07,-4.533775425694641e-06,0.0
2.8166668135672808,1.1060932592954487e-05,0.0,0.3391523063182831,0.0,-0.27356773614883423,1.0,3.757917640737798,3.644239136258531,6.667991309904599e-06,-3.561382480195019e-05,-0.000321647730019978,0.0,0.06558803584965196,0.06360397165774563,1.1637840285220484e-07,-6.215785020224482e-07,-5.613811920414422e-06,0.0
2.850000148639083,1.1140734386572149e-05,0.0,0.3497519791126251,0.0,-0.2706868052482605,1.0,3.7578218639980157,3.5176227527555093,1.4574455415095451e-05,-3.167492452230163e-05,-0.00039329884222634535,0.0,0.06558636423019594,0.06139409887865007,2.543722336785325e-07,-5.528317232348556e-07,-6.864359741131432e-06,0.0
2.883333483710885,1.1218876352359075e-05,0.0,0.35963568091392517,0.0,-0.2678108513355255,1.0,3.7409796997058096,3.3889307689974912,2.0491475367230257e-05,-2.8232576648843486e-05,-0.0004639949159116278,0.0,0.06529241301013512,0.05914800004114959,3.576437137494821e-07,-4.927514188439858e-07,-8.098238995172132e-06,0.0
2.916666818782687,1.1294634532532655e-05,0.0,0.3688065707683563,0.0,-0.2649386525154114,1.0,3.70928308633589,3.2588729349388896,2.5840741781262706e-05,-2.5066223180196522e-05,-0.0005363908912597574,0.0,0.06473920274509837,0.056878062618814576,4.510060252406986e-07,-4.3748812553415323e-07,-9.361787130189642e-06,0.0
2.9500001538544893,1.1370717402314767e-05,0.0,0.3772706687450409,0.0,-0.2620692253112793,1.0,3.6644916462019004,3.1280873545658965,3.081026806825017e-05,-2.2088297165643332e-05,-0.0006121068369907691,0.0,0.06395744463805032,0.05459542362717417,5.377406212130384e-07,-3.855135116994075e-07,-1.0683279679457139e-05,0.0
2.9833334889262915,1.1442846698628273e-05,0.0,0.3850364685058594,0.0,-0.2592015564441681,1.0,3.608211275362747,2.9971490431057215,3.523082080200114e-05,-1.928699293470701e-05,-0.0006913299627011796,0.0,0.06297516686266369,0.0523101189751923,6.148938211750292e-07,-3.3662152951952103e-07,-1.2065984066825176e-05,0.0
3.0166668239980936,1.1514321158756502e-05,0.0,0.3921147882938385,0.0,-0.2563347816467285,1.0,3.5419153422068543,2.866571586641766,3.917754421528413e-05,-1.6638496095708725e-05,-0.0007744030514837066,0.0,0.06181808454841129,0.05003111243101672,6.837771394023663e-07,-2.9039653945033883e-07,-1.351588298588184e-05,0.0
3.0500001590698957,1.158318355010124e-05,0.0,0.39851823449134827,0.0,-0.25346797704696655,1.0,3.466970299536761,2.736813769179961,4.252086036753994e-05,-1.4135912827216207e-05,-0.0008615641682368268,0.0,0.06051004679577052,0.04776641128610643,7.421290141943381e-07,-2.467182216098231e-07,-1.5037131452938976e-05,0.0
3.083333494141698,1.165243247669423e-05,0.0,0.40426111221313477,0.0,-0.2506004571914673,1.0,3.3845982118735822,2.6082809877834703,4.546715259684515e-05,-1.1764684498825039e-05,-0.0009531248955181839,0.0,0.05907238265430664,0.04552309105399155,7.935515143216378e-07,-2.0533247996283587e-07,-1.6635167609519253e-05,0.0
3.1166668292135,1.1717714187398087e-05,0.0,0.4093590974807739,0.0,-0.24773158133029938,1.0,3.2959306497028114,2.4813340406434357,4.772471567540734e-05,-9.533480559303133e-06,-0.001048615399562598,0.0,0.05752484175470992,0.04330744885104275,8.329534231140075e-07,-1.6639062493471018e-07,-1.830179130948324e-05,0.0
3.150000164285302,1.1781021385104395e-05,0.0,0.41382917761802673,0.0,-0.2448609471321106,1.0,3.2019995851389367,2.3562876119286216,4.9492810406899614e-05,-7.390826372794332e-06,-0.001149187818105782,0.0,0.055885435408166935,0.041124976952108865,8.638124976657127e-07,-1.2899425464849096e-07,-2.00571111497556e-05,0.0
3.1833334993571043,1.1841270861623343e-05,0.0,0.41768914461135864,0.0,-0.24198801815509796,1.0,3.103739610709938,2.2334157455935517,5.0735213604070177e-05,-5.324822221467851e-06,-0.0012551637545069037,0.0,0.05417047533145548,0.03898045832649151,8.854965240936433e-07,-9.29356798479727e-08,-2.1906740167839285e-05,0.0
3.2166668344289064,1.1898371667484753e-05,0.0,0.4209579527378082,0.0,-0.2391127198934555,1.0,3.0020026932394575,2.1129564333674256,5.186480874105452e-05,-3.33576114743039e-06,-0.0013664900568849552,0.0,0.05239483115076585,0.036878046713457756,9.052116784485366e-07,-5.822001508276429e-08,-2.3849750688407078e-05,0.0
3.2500001695007086,1.1953366993111558e-05,0.0,0.42365482449531555,0.0,-0.2362348586320877,1.0,2.8975635942885285,1.9951127064486514,5.294190958988655e-05,-1.4560093188801626e-06,-0.0014828000103143872,0.0,0.05057202500625598,0.03482128567590407,9.240106346366812e-07,-2.5412156554178872e-08,-2.5879742328591935e-05,0.0
3.2833335045725107,1.2002567018498667e-05,0.0,0.4257998466491699,0.0,-0.2333543449640274,1.0,2.791109903711503,1.8800573046466578,5.4043231499040204e-05,3.0242169026184676e-07,-0.0016041845033334767,0.0,0.04871405760478763,0.032813190092254266,9.432323280757622e-07,5.278254224515698e-09,-2.799830139263912e-05,0.0
3.316666839644313,1.2048251846863423e-05,0.0,0.4274134635925293,0.0,-0.23047134280204773,1.0,2.683277340328673,1.7679350866853736,5.487759947822947e-05,1.926131709370276e-06,-0.001730939435675378,0.0,0.04683202433289177,0.03085628822419113,9.577947964858265e-07,3.361734015557783e-08,-3.0210592305147946e-05,0.0
3.350000174716115,1.2087652066838928e-05,0.0,0.42851608991622925,0.0,-0.22758592665195465,1.0,2.5746317295232326,1.6588634282485455,5.563663227050927e-05,3.4321506629124945e-06,-0.001863590935296027,0.0,0.044935800706496505,0.02895262866385783,9.710424178417152e-07,5.990232949232906e-08,-3.252579773123628e-05,0.0
3.383333509787917,1.2122647603973746e-05,0.0,0.42912837862968445,0.0,-0.22469834983348846,1.0,2.4656918588165904,1.5529365041343857,5.58377481907774e-05,4.804760729868231e-06,-0.002002361730954478,0.0,0.04303444127596868,0.027103855071555563,9.745525528285725e-07,8.385889450672648e-08,-3.49478050210885e-05,0.0
3.4166668448597193,1.2151186638220679e-05,0.0,0.42927128076553345,0.0,-0.22180894017219543,1.0,2.3569063050650794,1.4502273220200896,5.598387587478275e-05,6.055562785800883e-06,-0.0021470551742226907,0.0,0.041135775184399544,0.025311241671630628,9.771029620427797e-07,1.0568950867346554e-07,-3.747318201216643e-05,0.0
3.4500001799315214,1.217333829117706e-05,0.0,0.42896556854248047,0.0,-0.21891804039478302,1.0,2.2486734810750226,1.3507894064305535,5.614162241412966e-05,7.168857409627705e-06,-0.0022979751903172865,0.0,0.039246756047041545,0.023575722643273022,9.7985615853801e-07,1.251201654039953e-07,-4.0107233200179965e-05,0.0
3.4833335150033236,1.2188745131425094e-05,0.0,0.42823177576065063,0.0,-0.21602606773376465,1.0,2.1413624913671736,1.2546585998074857,5.576483029287583e-05,8.135819814470058e-06,-0.00245539480634744,0.0,0.03737382595306583,0.02189792355510252,9.73279895426557e-07,1.419968431114967e-07,-4.2854723807131384e-05,0.0
3.5166668500751257,1.2198478543723468e-05,0.0,0.4270904064178467,0.0,-0.21313346922397614,1.0,2.0352943555383,1.1618550272011212,5.560037212263087e-05,8.954318692471074e-06,-0.002618819158697299,0.0,0.03552258775139942,0.02027819565550784,9.70409558873977e-07,1.5628234345649382e-07,-4.570701683357576e-05,0.0
3.550000185146928,1.220047488459386e-05,0.0,0.42556169629096985,0.0,-0.2102407068014145,1.0,1.930736564252069,1.0723844082247072,5.569733617137242e-05,9.596998465247076e-06,-0.002788398274259317,0.0,0.033697710034841656,0.0187166387705721,9.721019007805814e-07,1.6749922152740408e-07,-4.8666730742752934e-05,0.0
3.58333352021873,1.2195764611533377e-05,0.0,0.4236656129360199,0.0,-0.2073483169078827,1.0,1.8279413230905084,0.9862400645533621,5.572691417546901e-05,1.003542349895777e-05,-0.002963909155368712,0.0,0.03190359462119082,0.017213136341537587,9.726181343382352e-07,1.7515118188882283e-07,-5.172997349118819e-05,0.0
3.616666855290532,1.2182334103272296e-05,0.0,0.42142173647880554,0.0,-0.20445677638053894,1.0,1.7271199684026421,0.9034042307469277,5.545067145140264e-05,1.0283134258134967e-05,-0.00314617430887745,0.0,0.030143930025566534,0.01576737830298048,9.67796789268599e-07,1.7947455022907968e-07,-5.491110053156856e-05,0.0
3.6500001903623343,1.2162285202066414e-05,0.0,0.41884928941726685,0.0,-0.20156662166118622,1.0,1.6284539832681808,0.823848550302367,5.513170232673001e-05,1.0328997366758054e-05,-0.0033344902580179194,0.0,0.028421883725246403,0.01437886974055843,9.622297278308572e-07,1.8027501247975232e-07,-5.819783387808794e-05,0.0
3.6833335254341364,1.2135328688600566e-05,0.0,0.41596701741218567,0.0,-0.19867832958698273,1.0,1.5320918975550337,0.7475358753570193,5.476571186781562e-05,1.0160834464246562e-05,-0.003529013753322619,0.0,0.026740048055462998,0.013046962301757928,9.558419892919161e-07,1.7734001615121656e-07,-6.159290934364268e-05,0.0
3.7166668605059385,1.2099340892746113e-05,0.0,0.4127933382987976,0.0,-0.1957925260066986,1.0,1.4381677051031112,0.6744218254313755,5.402123680509534e-05,9.786095949772317e-06,-0.0037301441829943214,0.0,0.025100761649900147,0.011770881401087929,9.428484482484559e-07,1.7079959523960856e-07,-6.510329756736478e-05,0.0
3.7500001955777407,1.2057203093718272e-05,0.0,0.40934616327285767,0.0,-0.1929095983505249,1.0,1.3467861788034448,0.6044551527540022,5.324000543172634e-05,9.199451875109533e-06,-0.003937351151829472,0.0,0.023505853140473175,0.010549732596202609,9.292133885632897e-07,1.6056072459942754e-07,-6.871974140661544e-05,0.0
3.783333530649543,1.200605220219586e-05,0.0,0.40564292669296265,0.0,-0.19003009796142578,1.0,1.2580336332872533,0.5375784077486654,5.249315530500098e-05,8.404179875646372e-06,-0.0041511991062420815,0.0,0.021956829001689503,0.009382513202842809,9.161783948329954e-07,1.4668060975987678e-07,-7.245209230977021e-05,0.0
3.816666865721345,1.194921242131386e-05,0.0,0.40170034766197205,0.0,-0.18715448677539825,1.0,1.1719777239054114,0.4737290447400748,5.155877348124672e-05,7.374907840836816e-06,-0.004371411458356615,0.0,0.020454870042178486,0.00826813159304183,8.998703555376941e-07,1.2871642385374836e-07,-7.629552290772992e-05,0.0
3.850000200793147,1.1883775187015999e-05,0.0,0.3975350558757782,0.0,-0.18428318202495575,1.0,1.0886652955342813,0.41284104188066606,5.034605532943813e-05,6.143484376021373e-06,-0.004598897856750996,0.0,0.019000793859270327,0.0072054354681814255,8.787044308899338e-07,1.0722402990640233e-07,-8.026590956321541e-05,0.0
3.8833335358649492,1.181245443149237e-05,0.0,0.39316269755363464,0.0,-0.18141666054725647,1.0,1.0081327195470855,0.3548434462443169,4.917517444052894e-05,4.694331238794409e-06,-0.004833326468539333,0.0,0.01759523525318124,0.006193186466086837,8.582687042297905e-07,8.19315362961866e-08,-8.435746069980149e-05,0.0
3.9166668709367514,1.1734094186977018e-05,0.0,0.3885987102985382,0.0,-0.17855530977249146,1.0,0.9304011950374035,0.2996641683581281,4.791024880723082e-05,3.027740238848701e-06,-0.005075103686489557,0.0,0.016238564217892618,0.005230126388099945,8.361915871358639e-07,5.284403606302936e-08,-8.857726920934483e-05,0.0
3.9500002060085535,1.1648017789411824e-05,0.0,0.3838578462600708,0.0,-0.17569947242736816,1.0,0.8554797747435913,0.24722720843768808,4.676308206459446e-05,1.144393238231054e-06,-0.005324104062449274,0.0,0.014930938753495097,0.0043149287877519635,8.16169750407481e-07,1.9973429944691737e-08,-9.292314560854562e-05,0.0
3.9833335410803556,1.1557338439160958e-05,0.0,0.37895435094833374,0.0,-0.17284950613975525,1.0,0.7833636929736175,0.19745498700214398,4.548203623799282e-05,-9.75404593310749e-07,-0.00557941067077016,0.0,0.013672275682971595,0.00344623964767002,7.9381128286435e-07,-1.7024021692348827e-08,-9.737908652584464e-05,0.0
4.016666876152158,1.1461172107374296e-05,0.0,0.37390202283859253,0.0,-0.17000576853752136,1.0,0.7140410039874782,0.15027000937157967,4.443584580352276e-05,-3.3309380575895273e-06,-0.0058413702353964005,0.0,0.012462366513827454,0.0026227064305368,7.755518151799774e-07,-5.8135836284921746e-08,-0.0001019511434356634,0.0
4.05000021122396,1.1357656148902606e-05,0.0,0.36871400475502014,0.0,-0.167168527841568,1.0,0.6474896152526629,0.10559148181226614,4.3012787449638835e-05,-5.923703150085755e-06,-0.006109984293317941,0.0,0.011300825658630264,0.0018429190196837533,7.507147614566924e-07,-1.0338812387975623e-07,-0.00010663934316353704,0.0
4.083333546295762,1.1249837370996829e-05,0.0,0.36340293288230896,0.0,-0.16433808207511902,1.0,0.5836822842167275,0.06334054212017345,4.1357590216899806e-05,-8.740268860957866e-06,-0.00638516048540898,0.0,0.010187177645143227,0.0011055010099951766,7.218261199754974e-07,-1.5254646913324924e-07,-0.00011144207373862605,0.0
4.116666881367564,1.113710823119618e-05,0.0,0.35798096656799316,0.0,-0.16151459515094757,1.0,0.5225814972854388,0.02343594417906796,3.947103100223143e-05,-1.1774912292211245e-05,-0.0066664863815349305,0.0,0.009120767737632717,0.0004090343892383354,6.888994501456957e-07,-2.0551098863263888e-07,-0.00011635213689714745,0.0
4.150000216439366,1.1021998943760991e-05,0.0,0.35245972871780396,0.0,-0.15869833528995514,1.0,0.46414615054047403,-0.014202513250963373,3.7526016322491176e-05,-1.5024584624882908e-05,-0.006954039248138897,0.0,0.00810087853738853,-0.00024788061828743456,6.549525399846053e-07,-2.622284704487239e-07,-0.00012137088119293471,0.0
4.1833335515111685,1.0901611858571414e-05,0.0,0.3468502461910248,0.0,-0.15588945150375366,1.0,0.4083302329343809,-0.04965463013352106,3.525316774292324e-05,-1.8471385321197736e-05,-0.0072486410910926795,0.0,0.007126707000140334,-0.0008666367846899341,6.152838488718684e-07,-3.2238649125945084e-07,-0.00012651265333492147,0.0
4.216666886582971,1.0778905561892316e-05,0.0,0.34116318821907043,0.0,-0.15308813750743866,1.0,0.3550823383940753,-0.0830003987341241,3.2955850537204366e-05,-2.2109164612440403e-05,-0.007549399127146119,0.0,0.006197355920657289,-0.001448630238378599,5.751880996693582e-07,-3.858777173525011e-07,-0.0001317618713158858,0.0
4.250000221654773,1.0651853699528147e-05,0.0,0.3354087471961975,0.0,-0.15029451251029968,1.0,0.30434526538442513,-0.11431755702671516,3.054503291905368e-05,-2.5931464515310937e-05,-0.00785607412753917,0.0,0.005311826943814144,-0.001995217762952559,5.331113945675413e-07,-4.5258943565625134e-07,-0.00013711435980629945,0.0
4.283333556726575,1.0525335710553918e-05,0.0,0.32959648966789246,0.0,-0.14750869572162628,1.0,0.2560602559500571,-0.143683540681984,2.820047064938385e-05,-2.9940057343112532e-05,-0.00816880405444276,0.0,0.0044690945498278975,-0.0025077508658238393,4.921910634437716e-07,-5.225525788732193e-07,-0.00014257252670028827,0.0
4.316666891798377,1.0396041943749879e-05,0.0,0.3237355947494507,0.0,-0.14473076164722443,1.0,0.21016718750874347,-0.1711763019973338,2.5824927617444902e-05,-3.412840732922875e-05,-0.008487278847375204,0.0,0.0036681094016838725,-0.0029875900712416207,4.5073001601362814e-07,-5.956530763568062e-07,-0.00014813096042156658,0.0
4.350000226870179,1.0265729542879853e-05,0.0,0.3178348243236542,0.0,-0.14196079969406128,1.0,0.16660129232712498,-0.1968696548594377,2.3345196851301536e-05,-3.8494808197553296e-05,-0.008811428415424859,0.0,0.0029077410891858967,-0.003436023674562042,4.0745054958142485e-07,-6.718611479710088e-07,-0.0001537884376529505,0.0
4.383333561941981,1.0135001502931118e-05,0.0,0.3119024336338043,0.0,-0.13919886946678162,1.0,0.1252991717650932,-0.2208385420785006,2.0840742863633384e-05,-4.3026818252758394e-05,-0.009141878819551301,0.0,0.002186883097322791,-0.003854359674573877,3.6373958153191415e-07,-7.509596451678278e-07,-0.00015955588521950276,0.0
4.4166668970137835,1.000443080556579e-05,0.0,0.3059462606906891,0.0,-0.13644501566886902,1.0,0.08619313790543974,-0.2431545636961277,1.8267835838345673e-05,-4.7725516734603594e-05,-0.009477879330928602,0.0,0.0015043540490754523,-0.004243847727747701,3.188338825929506e-07,-8.329674042344854e-07,-0.00016542020043142132,0.0
4.450000232085586,9.874353054328822e-06,0.0,0.2999737560749054,0.0,-0.13369926810264587,1.0,0.04921625090743669,-0.26388803220383183,1.5387041196575594e-05,-5.257342587933189e-05,-0.009818865174878313,0.0,0.0008589856238224173,-0.004605715018565694,2.6855453102025217e-07,-9.175793806475365e-07,-0.00017137152611103538,0.0
4.483333567157388,9.746003343025222e-06,0.0,0.29399195313453674,0.0,-0.13096164166927338,1.0,0.014300794452561218,-0.2831088623628152,1.2339295679252158e-05,-5.7552848547072126e-05,-0.01016477757498716,0.0,0.0002495959488481333,-0.004941181789806578,2.153613369800603e-07,-1.0044867010480433e-06,-0.00017740883641641076,0.0
4.51666690222919,9.619569937058259e-06,0.0,0.2880074679851532,0.0,-0.12823209166526794,1.0,-0.018621735026397485,-0.3008826133734169,9.12206554809802e-06,-6.265579503621758e-05,-0.010515859282596704,0.0,-0.00032501058864458927,-0.005251392265371247,1.5921007839705162e-07,-1.0935499188367165e-06,-0.0001835363681577213,0.0
4.550000237300992,9.495502126810607e-06,0.0,0.2820265591144562,0.0,-0.12551063299179077,1.0,-0.049619367945390035,-0.3172760690881854,5.981532269568549e-06,-6.786924330219752e-05,-0.010872834128206858,0.0,-0.00086602134340559,-0.005537512043373838,1.043974324182602e-07,-1.1845417564604555e-06,-0.00018976675456041693,0.0
4.583333572372794,9.373511602461804e-06,0.0,0.27605515718460083,0.0,-0.12279722839593887,1.0,-0.07875994558122788,-0.3323526186895555,2.878876598089058e-06,-7.319373034520554e-05,-0.01123499718588993,0.0,-0.0013746203690839856,-0.005800647473757985,5.0245875395267556e-08,-1.2774715863407225e-06,-0.0001960876923460767,0.0
4.616666907444596,9.254361430066638e-06,0.0,0.2700987458229065,0.0,-0.12009189277887344,1.0,-0.10611122803455157,-0.3461744518056882,-2.5801339656797345e-07,-7.861362114478914e-05,-0.01160124536198388,0.0,-0.0018519903025374363,-0.006041883970295688,-4.503183284364974e-09,-1.3720665258920044e-06,-0.0002024799288983401,0.0
4.650000242516398,9.140957445197273e-06,0.0,0.26416251063346863,0.0,-0.11739453673362732,1.0,-0.13173979351029622,-0.35880038476433807,-3.636730150721682e-06,-8.413027095563253e-05,-0.01197151860931086,0.0,-0.002299293152652127,-0.006262248071560198,-6.347291513664298e-08,-1.468350228770744e-06,-0.0002089424161962472,0.0
4.683333577588201,9.032649359141942e-06,0.0,0.2582513689994812,0.0,-0.11470510065555573,1.0,-0.1557124290813512,-0.3702893868867689,-7.121487508065956e-06,-8.971527655890165e-05,-0.012345660079384592,0.0,-0.0027176945737477478,-0.006462768986365232,-1.2429340465539717e-07,-1.5658269652901223e-06,-0.00021547241671728565,0.0
4.716666912660003,8.927453563956078e-06,0.0,0.25236985087394714,0.0,-0.11202356219291687,1.0,-0.1780936695891209,-0.3806973450018455,-1.056388459611323e-05,-9.535553369215289e-05,-0.012723330999110254,0.0,-0.0031083209112890567,-0.006644422123882982,-1.8437456800288725e-07,-1.6642680229244527e-06,-0.00022206401775553365,0.0
4.750000247731805,8.828785212244838e-06,0.0,0.24652226269245148,0.0,-0.10934987664222717,1.0,-0.1989479319809704,-0.3900788008528339,-1.4140912485783136e-05,-0.00010105179564421546,-0.013104482135778275,0.0,-0.0034722964531016583,-0.006808159417113217,-2.4680548211329155e-07,-1.7636865490440243e-06,-0.0002287163600381095,0.0
4.783333582803607,8.736429663258605e-06,0.0,0.240712508559227,0.0,-0.10668393969535828,1.0,-0.218338781762956,-0.3984867359804239,-1.790816680116594e-05,-0.00010678227959257661,-0.013488401337509424,0.0,-0.003810730626556932,-0.006954905568383751,-3.125564736766863e-07,-1.8637023616756109e-06,-0.00023541701416994636,0.0
4.816666917875409,8.650662493892014e-06,0.0,0.23494432866573334,0.0,-0.10402572900056839,1.0,-0.23632748390404987,-0.4059697710974237,-2.1586094409023178e-05,-0.00011252867856007635,-0.013874903009414312,0.0,-0.004124692707079573,-0.007085509169217757,-3.76748420083794e-07,-1.963995943791684e-06,-0.00024216274090914955,0.0
4.850000252947211,8.569986675865948e-06,0.0,0.22922112047672272,0.0,-0.10137514024972916,1.0,-0.2529743648301939,-0.41257851142250346,-2.5048324008092706e-05,-0.00011828564838863221,-0.014263146236394996,0.0,-0.00441523558942823,-0.007200853447299719,-4.371757260475605e-07,-2.0644740222379573e-06,-0.00024893886351853015,0.0
4.883333588019013,8.497193448420148e-06,0.0,0.22354599833488464,0.0,-0.0987321138381958,1.0,-0.2683379679105935,-0.41835992697793295,-2.8654326982613417e-05,-0.00012405089471268987,-0.014652484908144829,0.0,-0.004683381048150745,-0.0073017581841679806,-5.001123507896561e-07,-2.1650965527812634e-06,-0.00025573410524590615,0.0
4.9166669230908155,8.432293725491036e-06,0.0,0.21792194247245789,0.0,-0.09609660506248474,1.0,-0.28247646326942977,-0.4233583455503372,-3.2481213300315876e-05,-0.0001298021858790478,-0.015042422793785301,0.0,-0.004930144343440375,-0.007388997045649269,-5.669041171330857e-07,-2.265475519875074e-06,-0.0002625398052285975,0.0
4.950000258162618,8.376538062293548e-06,0.0,0.21235162019729614,0.0,-0.09346852451562881,1.0,-0.29544519874107167,-0.4276176128231841,-3.636294282197564e-05,-0.00013553098247361003,-0.015432988385038038,0.0,-0.005156491477240706,-0.007463335283282887,-6.346530779579131e-07,-2.3654618826272237e-06,-0.00026935646074095613,0.0
4.98333359323442,8.327157047460787e-06,0.0,0.206837460398674,0.0,-0.09084777534008026,1.0,-0.3072998434575912,-0.43118028862624336,-4.037717078510678e-05,-0.0001412056140323817,-0.015823246272318254,0.0,-0.005363394059198123,-0.007525515706227405,-7.047145728401771e-07,-2.4645028871653674e-06,-0.0002761677458058728,0.0
5.016666928306222,8.286928277811967e-06,0.0,0.20138175785541534,0.0,-0.0882343128323555,1.0,-0.3180923888754778,-0.43408527687498233,-4.435278489166393e-05,-0.0001468193803672784,-0.016212849925371923,0.0,-0.005551759511411271,-0.007576217315899643,-7.741021287883321e-07,-2.56248159314693e-06,-0.000282967612329457,0.0
5.050000263378024,8.255202374130022e-06,0.0,0.1959865242242813,0.0,-0.08562806993722916,1.0,-0.32787491366753474,-0.4363719256996503,-4.851404265050002e-05,-0.00015235625472328823,-0.01660065479445563,0.0,-0.0057224967781906375,-0.0076161268667269575,-8.467297777041819e-07,-2.6591182809285416e-06,-0.00028973608415023324,0.0
5.083333598449826,8.233268090407364e-06,0.0,0.1906536966562271,0.0,-0.08302895724773407,1.0,-0.33669605503072314,-0.4380763034843831,-5.2482234525781265e-05,-0.00015779483996055353,-0.016985983272276503,0.0,-0.005876454738762136,-0.007645873870768392,-9.159877912787279e-07,-2.754039499969178e-06,-0.0002964613347899054,0.0
5.116666933521628,8.219095434469637e-06,0.0,0.18538488447666168,0.0,-0.08043693751096725,1.0,-0.3446044770201326,-0.4392349557362358,-5.644431746372517e-05,-0.00016313562595258427,-0.01736858305479577,0.0,-0.006014482741114451,-0.007666096167448868,-9.851391837829393e-07,-2.8472538001745065e-06,-0.0003031389607122809,0.0
5.1500002685934305,8.214596164179966e-06,0.0,0.180181622505188,0.0,-0.07785190641880035,1.0,-0.35164725840765193,-0.4398802458691004,-6.0131013716753276e-05,-0.00016836251775066984,-0.017747720048269435,0.0,-0.0061374024648248385,-0.007677358604897988,-1.0494841719192177e-06,-2.938480271696586e-06,-0.00030975614956450857,0.0
5.183333603665233,8.219251867558341e-06,0.0,0.17504523694515228,0.0,-0.075273796916008,1.0,-0.35786775118397607,-0.4400457646807323,-6.396492735095144e-05,-0.00017347650324458987,-0.018122488336745585,0.0,-0.006245970544868217,-0.007680247453134953,-1.1163985880730771e-06,-3.0277361564647192e-06,-0.0003162970901304813,0.0
5.216666938737035,8.233937478507869e-06,0.0,0.16997690498828888,0.0,-0.0727025642991066,1.0,-0.36331139614449276,-0.4397610488974233,-6.794324936270979e-05,-0.00017845240101324182,-0.018491941700752867,0.0,-0.006340980072738831,-0.007675278225283816,-1.1858334058828248e-06,-3.1145819557703346e-06,-0.0003227452677649775,0.0
5.250000273808837,8.256542969320435e-06,0.0,0.16497766971588135,0.0,-0.07013813406229019,1.0,-0.3680182250048013,-0.43905685174886666,-7.157711143619748e-05,-0.00018326789584927476,-0.018855440925561576,0.0,-0.006423129733679107,-0.007662987666458346,-1.249256263628533e-06,-3.198628195771894e-06,-0.00032908952606633656,0.0
5.283333608880639,8.290015102829784e-06,0.0,0.16004839539527893,0.0,-0.0675804391503334,1.0,-0.3720292186019212,-0.4379606486732466,-7.538199643855876e-05,-0.00018793684996704207,-0.019212105603564907,0.0,-0.00649313477822526,-0.007643855313518288,-1.3156640345794897e-06,-3.2801168177514805e-06,-0.00033531449902306004,0.0
5.316666943952441,8.33194008009741e-06,0.0,0.1551898717880249,0.0,-0.06502943485975266,1.0,-0.375381942952415,-0.4364987919626031,-7.907119322421506e-05,-0.0001924189347843175,-0.019560279145064977,0.0,-0.006551650857053165,-0.007618341100725185,-1.3800526652431836e-06,-3.3583439551665855e-06,-0.0003413912736905654,0.0
5.350000279024243,8.38313644635491e-06,0.0,0.15040276944637299,0.0,-0.06248505041003227,1.0,-0.378114817976386,-0.4346982391792853,-8.27247256999079e-05,-0.00019671304623687677,-0.01989944104618191,0.0,-0.0065993485242669785,-0.0075869155263003415,-1.4438188362725633e-06,-3.433290338461341e-06,-0.0003473107655623793,0.0
5.3833336140960455,8.44429996504914e-06,0.0,0.1456875503063202,0.0,-0.059947237372398376,1.0,-0.3802629473296986,-0.4325826550482628,-8.61958078020862e-05,-0.0002008020369785152,-0.020227844985530475,0.0,-0.00663684045424102,-0.007549991617611056,-1.5044006475626212e-06,-3.504656689986496e-06,-0.00035304249558053155,0.0
5.416666949167848,8.51413824420888e-06,0.0,0.14104467630386353,0.0,-0.057415932416915894,1.0,-0.38186038398542493,-0.4301746834096158,-8.949915306824686e-05,-0.0002046720108865416,-0.02054359762570567,0.0,-0.006664720983475491,-0.007507964584222022,-1.562054898787293e-06,-3.5722004766478293e-06,-0.00035855341877345364,0.0
5.45000028423965,8.593562597525306e-06,0.0,0.1364743858575821,0.0,-0.05489109084010124,1.0,-0.3829386187884481,-0.42749734500562514,-9.261920919992388e-05,-0.0002083104176816121,-0.0208445804561198,0.0,-0.006683539730897838,-0.007461236213882295,-1.6165101511320948e-06,-3.635702654748744e-06,-0.00036380656015615187,0.0
5.483333619311452,8.681115104991477e-06,0.0,0.131976917386055,0.0,-0.052372682839632034,1.0,-0.3835294396285352,-0.424571283351244,-9.568891848737587e-05,-0.00021167864281037673,-0.021126035509391048,0.0,-0.006693851499846757,-0.0074101668038969925,-1.6700866852771811e-06,-3.6944892731940966e-06,-0.00036871887753211124,0.0
5.516666954383254,8.778572919254657e-06,0.0,0.12755239009857178,0.0,-0.049860630184412,1.0,-0.38366860665403874,-0.42141661896585764,-9.85082374861379e-05,-0.0002147158868770837,-0.021379706727504093,0.0,-0.006696280422652001,-0.007355107523576597,-1.7192930844696083e-06,-3.7474991823447953e-06,-0.00037314627550572856,0.0
5.550000289455056,8.882863767212257e-06,0.0,0.12320081144571304,0.0,-0.047354888170957565,1.0,-0.3833945402782274,-0.4180517947778078,-0.00010119862468386353,-0.0002173509699140684,-0.021596645732745477,0.0,-0.006691497062025084,-0.0072963802627443826,-1.7662491992234242e-06,-3.7934900574036303e-06,-0.0003769325754231919,0.0
5.583333624526858,8.995393727673218e-06,0.0,0.11892212927341461,0.0,-0.04485544189810753,1.0,-0.38273029281168636,-0.4144942008993487,-0.00010379117375470565,-0.00021961380914124287,-0.021780434312256777,0.0,-0.006679903756685913,-0.007234288536116476,-1.8114977165291388e-06,-3.8329840523611085e-06,-0.0003801402912632275,0.0
5.6166669595986605,9.117032277572434e-06,0.0,0.11471621692180634,0.0,-0.04236222058534622,1.0,-0.38169303901379686,-0.4107605623361775,-0.00010603850139173788,-0.0002215395616685487,-0.021935469886709476,0.0,-0.006661800262733925,-0.007169124250109709,-1.8507209831664154e-06,-3.8665947745411976e-06,-0.0003828461724951479,0.0
5.650000294670463,9.245913133781869e-06,0.0,0.11058290302753448,0.0,-0.039875198155641556,1.0,-0.3803056333442019,-0.4068667305996859,-0.00010823257772953725,-0.00022314180604107733,-0.022063328783168214,0.0,-0.0066375854657386565,-0.007101164065789282,-1.8890148393011138e-06,-3.894559214263373e-06,-0.0003850777312163194,0.0
5.683333629742265,9.382521056977566e-06,0.0,0.10652190446853638,0.0,-0.03739432990550995,1.0,-0.3785929348681294,-0.40282795590425763,-0.00011001609806010494,-0.00022441918244749232,-0.02216350620983767,0.0,-0.006607693238237302,-0.007030674149607827,-1.9201431413457776e-06,-3.916853638342607e-06,-0.0003868261571478766,0.0
5.716666964814067,9.525054338155314e-06,0.0,0.10253288596868515,0.0,-0.034919582307338715,1.0,-0.37657894801159664,-0.39865914893591325,-0.00011173889749447702,-0.00022537754227657195,-0.02223507152762756,0.0,-0.0065725425364989145,-0.006957914742130135,-1.9502116638270663e-06,-3.933580172778897e-06,-0.00038807520757354623,0.0
5.750000299885869,9.675514775153715e-06,0.0,0.09861549735069275,0.0,-0.03245091438293457,1.0,-0.37428567464533896,-0.3943737995344743,-0.00011353687452823029,-0.00022600663522157231,-0.02227611136472771,0.0,-0.0065325173656094245,-0.006883121285476657,-1.981592282941302e-06,-3.944559915970221e-06,-0.000388791487855426,0.0
5.783333634957671,9.831665011006407e-06,0.0,0.09476925432682037,0.0,-0.029988307505846024,1.0,-0.37173380203463585,-0.3899850956357304,-0.00011545627517610858,-0.00022628039830792373,-0.022285735442989816,0.0,-0.0064879787864611915,-0.006806523952548464,-2.0150921439116907e-06,-3.9493379831974746e-06,-0.00038895945970856936,0.0
5.816666970029473,9.99279654934071e-06,0.0,0.0909937247633934,0.0,-0.027531731873750687,1.0,-0.36894457685707843,-0.3855046461192979,-0.00011685049366327036,-0.00022618719073193766,-0.02226239242021391,0.0,-0.006439297623533291,-0.006728325356517329,-2.039425847004838e-06,-3.947711204108715e-06,-0.00038855204710376177,0.0
5.850000305101275,1.0158316399611067e-05,0.0,0.08728832751512527,0.0,-0.025081146508455276,1.0,-0.36593583174985356,-0.3809441458008546,-0.00011790731071391293,-0.0002257385164634225,-0.022204259754019864,0.0,-0.0063867851150589475,-0.006648729610422244,-2.0578707841297664e-06,-3.939880360854148e-06,-0.00038753744067571285,0.0
5.883333640173078,1.0329385986551642e-05,0.0,0.08365251123905182,0.0,-0.022636521607637405,1.0,-0.3627256907043,-0.3763137262582391,-0.00011869916899444131,-0.00022493858352521474,-0.022109341474645248,0.0,-0.006330757584360624,-0.0065679135436549135,-2.0716913183341677e-06,-3.925918897287271e-06,-0.000385880804180298,0.0
5.91666697524488,1.0503482371859718e-05,0.0,0.08008566498756409,0.0,-0.020197829231619835,1.0,-0.35933198604558675,-0.3716237141262226,-0.00011911969890478663,-0.00022377578767325247,-0.021975737607508962,0.0,-0.006271526264225807,-0.006486057389992746,-2.07903094987281e-06,-3.905624281141996e-06,-0.00038354897680537275,0.0
5.950000310316682,1.0682763786462601e-05,0.0,0.07658716291189194,0.0,-0.017765045166015625,1.0,-0.3557709398680488,-0.3668835824466616,-0.00011901149232341733,-0.0002222611134560736,-0.021801499281878002,0.0,-0.006209374283612212,-0.006403326485206318,-2.0771423887555886e-06,-3.8791882289571575e-06,-0.00038050794433995046,0.0
5.983333645388484,1.0864057003345806e-05,0.0,0.07315629720687866,0.0,-0.015338151715695858,1.0,-0.35205706658088753,-0.36210222302366535,-0.0001187515800055169,-0.00022040718393679707,-0.021585302955332286,0.0,-0.006144554966749383,-0.006319876020553778,-2.072606063041736e-06,-3.846831054745866e-06,-0.0003767346066110109,0.0
6.016666980460286,1.1047326552215964e-05,0.0,0.06979239732027054,0.0,-0.012917116284370422,1.0,-0.34820488063958865,-0.3572877332828508,-0.00011841754306454186,-0.00021819429654874406,-0.021324940581905094,0.0,-0.006077321638674681,-0.006235847322773075,-2.0667760185984316e-06,-3.808208883848484e-06,-0.0003721904259463994,0.0
6.050000315532088,1.1235041711188387e-05,0.0,0.06649468839168549,0.0,-0.010501918382942677,1.0,-0.3442288021321081,-0.3524488329202172,-0.00011786038307300832,-0.00021563447941118106,-0.021018722571846032,0.0,-0.006007925977401363,-0.006151392579269171,-2.0570517422857875e-06,-3.7635316465490326e-06,-0.00036684591344196364,0.0
6.08333365060389,1.1422072020650376e-05,0.0,0.063262440264225,0.0,-0.008092537522315979,1.0,-0.34014182715865915,-0.34759217910196516,-0.00011735078012131254,-0.00021270669762402951,-0.02066471216217349,0.0,-0.005936594807668071,-0.006066627979511119,-2.0481574929008146e-06,-3.7124322145833147e-06,-0.00036066726620684385,0.0
6.116666985675693,1.1611407899181359e-05,0.0,0.06009487435221672,0.0,-0.005688950419425964,1.0,-0.3359558139903961,-0.34272441932489023,-0.00011649371409583183,-0.00020940360764880477,-0.02026039502048931,0.0,-0.005863535095350041,-0.005981669544205016,-2.0331988688491946e-06,-3.654782419026025e-06,-0.0003536106008622024,0.0
