time,x,x_target,y,y_target,z,z_target,roll_deg,roll_target_deg,pitch_deg,pitch_target_deg,yaw_deg,yaw_target_deg,roll_rad,roll_target_rad,pitch_rad,pitch_target_rad,yaw_rad,yaw_target_rad
0.01666666753590107,0.0,0.0,0.0,0.0,-0.002725000027567148,1.0,0.0,-0.0,0.0,0.0,0.0,0.0,0.0,-0.0,0.0,0.0,0.0,0.0
0.05000000260770321,2.999266390801836e-10,0.0,3.0079344570665967e-10,0.0,-0.0011550134513527155,1.0,-6.029344207305341e-10,9.651810230052526e-10,2.5230289144432085e-08,8.294271515002184e-10,5.64546807160215e-06,0.0,-1.0523190815352575e-11,1.684558672920879e-11,4.4035161680052305e-10,1.4476234699116636e-11,9.85320056656725e-08,0.0
0.08333333767950535,5.318324669545405e-10,0.0,2.2593280024629792e-10,0.0,0.01118940394371748,1.0,2.052856284669056e-08,8.844297196477129e-10,3.613165553442255e-07,-2.2810166812930872e-08,1.8741213174867474e-05,0.0,3.582910123773302e-10,1.5436210610342973e-11,6.3061635327210485e-09,-3.981125138147852e-10,3.2709587571957723e-07,0.0
0.11666667275130749,-3.123810099481261e-10,0.0,-9.923095678487925e-10,0.0,0.03724322095513344,1.0,3.412220487117341e-08,-5.449074243173342e-09,6.922978909728505e-07,-5.998615890710508e-08,3.989094387456299e-05,0.0,5.955448230420236e-10,-9.510428672899297e-11,1.208287760208897e-08,-1.046955978553507e-09,6.96228312339388e-07,0.0
0.15000000782310963,1.0729895860706051e-09,0.0,9.271258760712442e-11,0.0,0.07870789617300034,1.0,3.3025106800423034e-08,-5.1812506012159686e-09,9.163308127639962e-07,-1.5248653250896315e-07,6.425401634707967e-05,0.0,5.763968494901517e-10,-9.042988236215437e-11,1.5992989720207415e-08,-2.6613920572307765e-09,1.1214441428867999e-06,0.0
0.18333334289491177,1.7584430578310162e-09,0.0,9.978436826818537e-11,0.0,0.1322624534368515,1.0,3.252008770808256e-08,-8.130496255757138e-09,4.3558028346827376e-08,-2.3103443379318692e-07,8.54077057937538e-05,0.0,5.675826035433773e-10,-1.4190392948403302e-10,7.602310103291602e-10,-4.0323115551719635e-09,1.4906456726756407e-06,0.0
0.2166666779667139,2.7707551808475728e-09,0.0,-4.430469324745445e-10,0.0,0.19447898864746094,1.0,3.98195228497575e-08,-1.2658895148866534e-08,-1.5400053768948076e-06,-2.028049069674636e-07,0.00010395558521138906,0.0,6.949817803013838e-10,-2.2093940001245874e-10,-2.6878164325230602e-08,-3.539613365783028e-09,1.8143672377762646e-06,0.0
0.25000001303851604,3.429012407352161e-09,0.0,3.4317876318468166e-10,0.0,0.2627788782119751,1.0,4.228988057357406e-08,-1.284178467323716e-08,-1.4631152468123586e-06,-9.388317293373313e-08,0.00012048578343474677,0.0,7.380976562840555e-10,-2.2413142438013258e-10,-2.5536178393005128e-08,-1.6385704799128672e-09,2.1028736227811736e-06,0.0
0.2833333481103182,3.3263682919226767e-09,0.0,-2.46473896847732e-10,0.0,0.3351689279079437,1.0,4.267400392541366e-08,-1.7129354384743006e-08,-1.340832746731625e-06,-1.1867585833216823e-09,0.00013515962715321398,0.0,7.44801873507453e-10,-2.9896363275469296e-10,-2.3401946149026096e-08,-2.071284470526682e-11,2.358980509591514e-06,0.0
0.3166666831821203,3.2748743716837225e-09,0.0,-1.0369117370290226e-10,0.0,0.41007739305496216,1.0,4.735268197918735e-08,-1.8789942441746095e-08,-1.2539136434904429e-06,7.983717166293101e-08,0.00014865066034513546,0.0,8.264602101866042e-10,-3.2794636186869216e-10,-2.188492161458659e-08,1.3934215109980627e-09,2.5944434582863844e-06,0.0
0.35000001825392246,2.1815225181853748e-09,0.0,9.497508335343241e-11,0.0,0.48624759912490845,1.0,1.1521703192355139e-07,-2.0301990794464195e-08,-3.315058007636439e-06,1.463811779327376e-07,0.00016136136922605102,0.0,2.0109165614413873e-09,-3.543365840729796e-10,-5.785867712785918e-08,2.5548335178739377e-09,2.8162871785208447e-06,0.0
0.3833333533257246,1.350548894940573e-09,0.0,-4.262887265404913e-10,0.0,0.5626662969589233,1.0,1.3016362943634024e-07,-2.7885956081459938e-08,-1.4861047528971954e-06,3.042027996281698e-07,0.00017253168733831893,0.0,2.271783900009948e-09,-4.86701748688012e-10,-2.59374209675928e-08,5.309340447296146e-09,3.0112460080750773e-06,0.0
0.41666668839752674,-5.077257503316446e-10,0.0,-1.068746868782e-09,0.0,0.6385127902030945,1.0,7.653599301035709e-08,-3.4819545790939455e-08,-2.8649436296971975e-06,3.551167072346647e-07,0.00018256166474166552,0.0,1.3358050743140977e-09,-6.077157181008266e-10,-5.0002699222253294e-08,6.197955770085666e-09,3.1863021376641063e-06,0.0
0.4500000234693289,-1.974143515326432e-09,0.0,-2.3260893211585199e-10,0.0,0.7131223082542419,1.0,7.651645804282425e-08,-3.474615488744978e-08,-4.634441009000564e-06,4.827018254692935e-07,0.000191656902262279,0.0,1.3354641248113796e-09,-6.064348051939185e-10,-8.0886254596508e-08,8.424736159826195e-09,3.345043978649737e-06,0.0
0.483333358541131,-4.9907669108506525e-09,0.0,-6.995919399344075e-10,0.0,0.7859575152397156,1.0,9.855135452982013e-08,-3.901249394855732e-08,-6.405388148550844e-06,6.764163116278549e-07,0.0001999892593655395,0.0,1.7200456188455896e-09,-6.808964688166885e-10,-1.1179511306043587e-07,1.1805691752102073e-08,3.4904710445535698e-06,0.0
0.5166666936129332,-8.526863659596984e-09,0.0,-9.697943559316968e-10,0.0,0.8565878868103027,1.0,7.930651142117085e-08,-4.295255177430958e-08,-8.102084683273861e-06,9.234904065962236e-07,0.00020759232108398735,0.0,1.3841597425699186e-09,-7.496634505950345e-10,-1.4140805399853082e-07,1.611794820568526e-08,3.6231695047728233e-06,0.0
0.5500000286847353,-1.3379484187225898e-08,0.0,-1.2614860267490258e-09,0.0,0.9246718883514404,1.0,9.941701500203726e-08,-4.6326928096846556e-08,-9.347310253938098e-06,1.2224391206904023e-06,0.00021476338917653204,0.0,1.7351542442901472e-09,-8.085574276246429e-10,-1.6314134013664707e-07,2.133558756123186e-08,3.7483282538724377e-06,0.0
0.5833333637565374,-1.9174988707959528e-08,0.0,-6.030743682217121e-10,0.0,0.989968478679657,1.0,9.230410112992573e-08,-4.7678225574760566e-08,-9.20034480388034e-06,1.5561554105593298e-06,0.00022165160306379124,0.0,1.6110104778110223e-09,-8.321420177881377e-10,-1.605763091464639e-07,2.716003558698444e-08,3.868550265786708e-06,0.0
0.6166666988283396,-2.6725386348402935e-08,0.0,-1.7002458330139802e-09,0.0,1.052359938621521,1.0,1.0437901692654692e-07,-5.4136456518022986e-08,-8.136093172145097e-06,1.8639944926259821e-06,0.00022846563806940687,0.0,1.821757515363136e-09,-9.44859411602246e-10,-1.4200161410296173e-07,3.253284113536455e-08,3.987477611980851e-06,0.0
0.6500000339001417,-3.530122683059744e-08,0.0,-1.6243796308046399e-09,0.0,1.1117892265319824,1.0,3.297233523219401e-08,-5.770708351363194e-08,-7.861235297374195e-06,2.1329710033672664e-06,0.000234843093758376,0.0,5.754758118731144e-10,-1.0071786090362153e-09,-1.3720443921317524e-07,3.722736685832585e-08,4.098785211653406e-06,0.0
0.6833333689719439,-4.5893706612787355e-08,0.0,-1.9338275425440088e-09,0.0,1.1682357788085938,1.0,-3.225560350827467e-08,-5.856388195414592e-08,-8.223774834718679e-06,2.423639836828742e-06,0.0002412065578559544,0.0,-5.62966483437227e-10,-1.022132562849137e-09,-1.4353194780849344e-07,4.230049503515967e-08,4.209848611988599e-06,0.0
0.716666704043746,-5.653241430536582e-08,0.0,-2.6101565353542355e-09,0.0,1.2217097282409668,1.0,-6.670230160140758e-08,-5.974406475364672e-08,-6.581568781380829e-06,2.720348722573493e-06,0.0002475582189883849,0.0,-1.1641747816028487e-09,-1.0427306384758301e-09,-1.1487004518156634e-07,4.747904201132924e-08,4.320706011720463e-06,0.0
0.7500000391155481,-6.824757292633876e-08,0.0,-2.6672817288186934e-09,0.0,1.2722439765930176,1.0,-7.861329862704134e-08,-5.753081544295866e-08,-5.287676767321717e-06,2.9488428110616225e-06,0.00025391232929887025,0.0,-1.3720608968954092e-09,-1.0041021508368286e-09,-9.228736937097407e-08,5.146701617679037e-08,4.431606157673351e-06,0.0
0.7833333741873503,-7.969120474626834e-08,0.0,-2.7035134131381255e-09,0.0,1.3198926448822021,1.0,-1.3722414531303694e-07,-5.5322902827384364e-08,-6.040608474792826e-06,3.1428795133887552e-06,0.0002600049245348145,0.0,-2.3950131489476395e-09,-9.655668060987373e-10,-1.054285067090077e-07,5.485359550211098e-08,4.537942004531899e-06,0.0
0.8166667092591524,-9.323161975771654e-08,0.0,-2.100903229163009e-09,0.0,1.3647264242172241,1.0,-2.0628748854062732e-07,-4.870185965803638e-08,-5.499015516899688e-06,3.400847222042075e-06,0.00026631807622476476,0.0,-3.600395880704019e-09,-8.500078028769344e-10,-9.597592638815744e-08,5.9355981381936886e-08,4.648127287699375e-06,0.0
0.8500000443309546,-1.0821180040920808e-07,0.0,-3.1696967273120435e-09,0.0,1.406828761100769,1.0,-2.0763803327602197e-07,-4.463558701011987e-08,-3.44514865292325e-06,3.617351007778523e-06,0.00027291064284316435,0.0,-3.623967333032131e-09,-7.790379568870032e-10,-6.012918721415808e-08,6.313468528607024e-08,4.763189281347516e-06,0.0
0.8833333794027567,-1.2258641390872071e-07,0.0,-3.124343894711501e-09,0.0,1.4462931156158447,1.0,-1.6814224886087815e-07,-3.715669034125522e-08,-2.149014793142546e-06,3.752519585825099e-06,0.0002794537829299405,0.0,-2.9346358543300085e-09,-6.48506585598879e-10,-3.750738381440229e-08,6.549382201822191e-08,4.8773886192809875e-06,0.0
0.9166667144745588,-1.3770910811672366e-07,0.0,-3.7065195357399716e-09,0.0,1.4832208156585693,1.0,-1.0952415440612254e-07,-3.4458105300296335e-08,-3.4726541075700353e-06,3.858839837598339e-06,0.0002858347299978815,0.0,-1.911557104849493e-09,-6.014073914890805e-10,-6.060924796000245e-08,6.734946047321428e-08,4.9887571550120364e-06,0.0
0.950000049546361,-1.5250607532379945e-07,0.0,-4.0326026962134165e-09,0.0,1.5177184343338013,1.0,-1.3293151446245466e-07,-3.256372729322366e-08,-5.093315704413152e-06,4.047324902156158e-06,0.00029258425256873906,0.0,-2.3200926070322938e-09,-5.683442579882938e-10,-8.88951288855438e-08,7.06391454405823e-08,5.1065585468111735e-06,0.0
0.9833333846181631,-1.6976757422071387e-07,0.0,-2.288941258754562e-09,0.0,1.5498970746994019,1.0,-2.0496745000982842e-07,-2.1858712082192886e-08,-4.8399849894466e-06,4.29971502008824e-06,0.00029941350375784935,0.0,-3.5773568620883897e-09,-3.815064960797312e-10,-8.447367381294617e-08,7.504418399799391e-08,5.225751465506886e-06,0.0
1.0166667196899652,-1.862769494209715e-07,0.0,-3.4900655698777427e-09,0.0,1.579869031906128,1.0,-1.93124886292075e-07,-1.7607580470565454e-08,-2.2387285166791865e-06,4.519987921619237e-06,0.00030621899268452743,0.0,-3.370665133336372e-09,-3.073102525212197e-10,-3.9073183674340595e-08,7.888867138263106e-08,5.344529654485433e-06,0.0
1.0500000547617674,-2.0310606885232119e-07,0.0,-3.4275802196503946e-09,0.0,1.607748031616211,1.0,-1.8121279051916002e-07,-1.1032449674668249e-08,7.39404397977234e-07,4.6255103918221955e-06,0.0003134110351333682,0.0,-3.1627598412861067e-09,-1.925525713835382e-10,1.2905041248429233e-08,8.073038592251031e-08,5.4700544751609e-06,0.0
1.0833333898335695,-2.1984013187648088e-07,0.0,-4.3612802258508054e-09,0.0,1.63364577293396,1.0,-1.574525733990177e-07,-7.513073955291653e-09,3.3500730893905817e-06,4.624674952699334e-06,0.00032106581622989166,0.0,-2.7480658215508983e-09,-1.311278774656726e-10,5.846980559232397e-08,8.071580475911639e-08,5.603655608814657e-06,0.0
1.1166667249053717,-2.3693647221989522e-07,0.0,-3.892165700847272e-09,0.0,1.6576745510101318,1.0,-1.4262936204610545e-07,-1.0615446997722973e-09,5.18918376575737e-06,4.53648747540206e-06,0.0003290842744689469,0.0,-2.4893519777235762e-09,-1.8527450168121287e-11,9.056834220350429e-08,7.917664292125122e-08,5.743604106019837e-06,0.0
1.1500000599771738,-2.5327420871690265e-07,0.0,-3.6786318435844123e-09,0.0,1.67994225025177,1.0,-1.2136385770101877e-07,5.201416772355527e-09,6.4731238691113924e-06,4.3865981202144175e-06,0.0003374157326732309,0.0,-2.1181989098046533e-09,9.078184844606033e-11,1.1297732440542827e-07,7.656058015953562e-08,5.889015483176887e-06,0.0
1.183333395048976,-2.684974163003062e-07,0.0,-3.5010463417251003e-09,0.0,1.7005552053451538,1.0,-9.703250073436459e-08,9.558621424602523e-09,7.67926504823382e-06,4.1843983155765466e-06,0.00034582139581432447,0.0,-1.6935366192584778e-09,1.6682941581098495e-10,1.3402845922500134e-07,7.303152782171547e-08,6.035721980802499e-06,0.0
1.216666730120778,-2.814444997056853e-07,0.0,-2.540365029446434e-09,0.0,1.7196147441864014,1.0,-1.1118606480372681e-07,1.613527118716178e-08,8.837539045887684e-06,3.932404321955805e-06,0.0003544354737295046,0.0,-1.9405629131608156e-09,2.8161360791814726e-10,1.5424415412429832e-07,6.863340293778394e-08,6.186066002445721e-06,0.0
1.2500000651925802,-2.934359315531765e-07,0.0,-2.9719302574449102e-09,0.0,1.7372208833694458,1.0,-1.1669170591501428e-07,1.9133055311295965e-08,9.931179262036235e-06,3.630249619264473e-06,0.00036326937855726203,0.0,-2.0366544779859415e-09,3.3393481114830317e-10,1.73331776728313e-07,6.335980852543562e-08,6.34024672749791e-06,0.0
1.2833334002643824,-3.0415031915254076e-07,0.0,-3.2891471768436986e-09,0.0,1.7534674406051636,1.0,-1.177682049066962e-07,2.260005812893786e-08,1.1202115490831954e-05,3.2755270168144294e-06,0.0003723328809611842,0.0,-2.05544292978519e-09,3.944454254920748e-10,1.9551379850367826e-07,5.716873118143946e-08,6.498434686208774e-06,0.0
1.3166667353361845,-3.1237860298460873e-07,0.0,-2.8898448078962247e-09,0.0,1.7684439420700073,1.0,-1.0183579205739228e-07,2.850160110517417e-08,1.1824214437090549e-05,2.863921258712039e-06,0.00038143893135227173,0.0,-1.7773698677777856e-09,4.974467813753439e-10,2.06371473389078e-07,4.998485548238541e-08,6.657365247385768e-06,0.0
1.3500000704079866,-3.194469968548219e-07,0.0,-2.6809714448461364e-09,0.0,1.7822370529174805,1.0,-1.3256479527554466e-07,3.298979796244844e-08,1.1013198143244079e-05,2.421726286157003e-06,0.0003903566293936677,0.0,-2.313692149790478e-09,5.757805940124419e-10,1.9221656877413528e-07,4.226709727553407e-08,6.813008439906777e-06,0.0
1.3833334054797888,-3.237879298012558e-07,0.0,-2.201267834678333e-09,0.0,1.7949271202087402,1.0,-1.212710170806868e-07,3.9845523228915606e-08,9.356577151160919e-06,2.0161325192259697e-06,0.000399608379927902,0.0,-2.1165785353002665e-09,6.954355725244595e-10,1.633030780046292e-07,3.518815061702105e-08,6.97448194830231e-06,0.0
1.416666740551591,-3.2663126603438286e-07,0.0,-1.9053008060154752e-09,0.0,1.8065905570983887,1.0,-1.2855725879804418e-07,4.545815351988322e-08,7.349318033841867e-06,1.6771742545194478e-06,0.0004090021307774992,0.0,-2.243747443364319e-09,7.933944507990118e-10,1.2826979746673662e-07,2.9272212871045753e-08,7.138433829739796e-06,0.0
1.450000075623393,-3.2859304610610707e-07,0.0,-1.414792727416625e-09,0.0,1.8173003196716309,1.0,-9.256108920666578e-08,5.204052114374947e-08,5.605700178486736e-06,1.4224086524330598e-06,0.00041802446612234273,0.0,-1.615495765888504e-09,9.082784384121536e-10,9.783792499422734e-08,2.4825714293812543e-08,7.295903287726374e-06,0.0
1.4833334106951952,-3.2898796575864253e-07,0.0,-2.0949868506647817e-09,0.0,1.827123999595642,1.0,-7.593182869875076e-08,5.3308018183362174e-08,6.90376988070327e-06,1.2177459833548558e-06,0.0004268087620337353,0.0,-1.3252604178535222e-09,9.304004350126762e-10,1.204935152182882e-07,2.1253676862478297e-08,7.449218173849651e-06,0.0
1.5166667457669973,-3.287824767994607e-07,0.0,-1.4697829620047287e-09,0.0,1.8361259698867798,1.0,-9.095008367280496e-09,5.828430466148731e-08,9.007975756439286e-06,9.268754175393086e-07,0.00043570663214716866,0.0,-1.5873784150547836e-10,1.0172530185784326e-09,1.5721883588969234e-07,1.6177027791858133e-08,7.604515303743863e-06,0.0
1.5500000808387995,-3.273256936608959e-07,0.0,-1.2920522429737957e-09,0.0,1.8443654775619507,1.0,-3.2287484158816183e-09,5.83438311866181e-08,8.9305814907721e-06,5.232820636880243e-07,0.0004446753721399627,0.0,-5.6352290575685416e-11,1.018291952434236e-09,1.5586805113163673e-07,9.132994927986686e-09,7.761049346373412e-06,0.0
1.5833334159106016,-3.235567191950395e-07,0.0,-8.871346435235239e-10,0.0,1.8518991470336914,1.0,-2.6005644679359527e-08,6.016544705284459e-08,6.26918543087864e-06,1.6015877892500396e-07,0.0004540133129541225,0.0,-4.538841237585688e-10,1.0500851470064569e-09,1.0941792718689165e-07,2.7952980182150236e-09,7.92402715893686e-06,0.0
1.6166667509824038,-3.191264568158658e-07,0.0,-7.740879603979067e-10,0.0,1.8587790727615356,1.0,-5.01298263549286e-08,6.124251790625701e-08,3.7078385364768964e-06,-7.11627514811037e-08,0.00046296157363456966,0.0,-8.749305233465316e-10,1.0688835796757687e-09,6.471399059384971e-08,-1.2420243181237309e-09,8.080203770137412e-06,0.0
1.650000086054206,-3.127056800167338e-07,0.0,-6.428154675219844e-10,0.0,1.8650537729263306,1.0,-6.994615401963042e-08,6.47033298896094e-08,5.28412884974512e-06,-2.0984786091889438e-07,0.00047123177628839334,0.0,-1.2207906867496174e-09,1.1292861435777432e-09,9.222544652767308e-08,-3.6625361013018405e-09,8.224546036253808e-06,0.0
1.683333421126008,-3.0602569722759654e-07,0.0,-3.3999719706301335e-11,0.0,1.870768666267395,1.0,-2.9829678406813864e-08,6.951913676963029e-08,7.555190475198737e-06,-4.88575357421641e-07,0.00047921469536892064,0.0,-5.206261030099584e-10,1.2133378297743033e-09,1.3186294940753296e-07,-8.527248631115748e-09,8.363874258129288e-06,0.0
1.7166667561978102,-2.9890438213442394e-07,0.0,1.338707478204526e-09,0.0,1.8759651184082031,1.0,-2.578195356518818e-08,7.489074502142655e-08,4.992990161413716e-06,-8.478308985167822e-07,0.00048675936760057565,0.0,-4.499799773088242e-10,1.3070900798954446e-09,8.714411783635247e-08,-1.4797440679259758e-08,8.495553629555456e-06,0.0
1.7500000912696123,-2.907156897435925e-07,0.0,1.2925615022751913e-09,0.0,1.8806837797164917,1.0,-2.0983410849129167e-08,7.582957855244198e-08,1.0827948435843505e-06,-1.0291345633156063e-06,0.0004940905443105423,0.0,-3.662296076160031e-10,1.3234758161397882e-09,1.8898335144163915e-08,-1.796178657593138e-08,8.623506801189899e-06,0.0
1.7833334263414145,-2.8096161486246274e-07,0.0,1.178389719136419e-09,0.0,1.8849596977233887,1.0,1.1260767256105498e-08,7.598260551319545e-08,2.402276260418166e-06,-1.0553831828056855e-06,0.0005006967638076797,0.0,1.9653746491980846e-10,1.3261466404492562e-09,4.192763028679373e-08,-1.8419911410136417e-08,8.73880708252439e-06,0.0
1.8166667614132166,-2.719887106650276e-07,0.0,1.5111816242807663e-09,0.0,1.8888278007507324,1.0,8.627696108721979e-08,7.654216854894941e-08,4.961151147326516e-06,-1.227890436553736e-06,0.0005070638495638215,0.0,1.505817039587012e-09,1.3359128577956178e-09,8.658842220994198e-08,-2.1430730971613228e-08,8.849933692725897e-06,0.0
1.8500000964850187,-2.618330086079368e-07,0.0,1.9627528491383828e-09,0.0,1.8923194408416748,1.0,1.1134679820197372e-07,7.308335666233392e-08,2.067712602724109e-06,-1.4940008601404463e-06,0.0005129176497668963,0.0,1.9433682401781434e-09,1.2755452021670605e-09,3.608839290251717e-08,-2.6075234037078102e-08,8.952101780023466e-06,0.0
1.8833334315568209,-2.5129887148978014e-07,0.0,2.9737072804181253e-09,0.0,1.8954631090164185,1.0,7.288564388323114e-08,7.15435989220332e-08,-9.455968441989553e-07,-1.5491208696173503e-06,0.00051856175849249,0.0,1.2720944631984488e-09,1.248671359915745e-09,-1.650377832773961e-08,-2.7037259686180552e-08,9.050610060625618e-06,0.0
1.916666766628623,-2.4160704015230294e-07,0.0,2.0767982888969527e-09,0.0,1.8982857465744019,1.0,5.996796208802421e-08,6.60728665078724e-08,1.669625036024786e-06,-1.5139768449104496e-06,0.0005236693926318107,0.0,1.046638384147156e-09,1.1531890667930611e-09,2.914045415236145e-08,-2.64238807426429e-08,9.13975509334403e-06,0.0
1.9500001017004251,-2.30153347047235e-07,0.0,2.662319253943224e-09,0.0,1.900811791419983,1.0,4.4360950694308255e-08,6.574602576989277e-08,2.835845044579253e-06,-1.6823083526829646e-06,0.0005284319529731486,0.0,7.742446489305436e-10,1.1474846197856686e-09,4.949483310427334e-08,-2.9361819788119712e-08,9.222877452125282e-06,0.0
1.9833334367722273,-2.1858784293726785e-07,0.0,3.0065354650332665e-09,0.0,1.9030654430389404,1.0,3.501409792021701e-08,6.521999766267926e-08,-1.1404223939008447e-06,-1.8305250321766371e-06,0.0005329532430502269,0.0,6.111112933234857e-10,1.138303697356759e-09,-1.990412563704544e-08,-3.194868885165746e-08,9.301788850408047e-06,0.0
2.0166667718440294,-2.134963068556317e-07,0.0,0.0005320327472873032,0.0,1.905066728591919,1.0,-0.17907477547619605,0.2440832649753478,1.1087876480686585e-06,-1.7118818489120953e-06,0.0005370839799702468,0.0,-0.0031254444393292173,0.004260056622837575,1.9351995164242238e-08,-2.987797466864417e-08,9.373883810196083e-06,0.0
2.0500001069158316,-2.2698732493608986e-07,0.0,0.0032395513262599707,0.0,1.906976580619812,1.0,-0.8659580887227475,0.7543717085938986,-6.287591079986506e-05,-1.6166615885819253e-06,0.0005502057957458863,0.0,-0.015113819832489122,0.013166270098858733,-1.0973916636479067e-06,-2.821606761127656e-08,9.602902699321126e-06,0.0
2.0833334419876337,-2.750970224951743e-07,0.0,0.008264508098363876,0.0,1.9090542793273926,1.0,-1.7045970971663151,1.3077288433555097,-0.0002199199787803144,8.76448022566036e-07,0.0006071788210696376,0.0,-0.029750831765489903,0.022824174039850813,-3.83832772063255e-06,1.529690371637089e-08,1.0597269576042694e-05,0.0
2.116666777059436,-3.93854264757465e-07,0.0,0.01577610708773136,0.0,1.9113645553588867,1.0,-2.493054341032845,1.907416093968341,-0.0002580626702256822,8.744497020817813e-06,0.0007320436396178839,0.0,-0.043512006682160716,0.033290691045277106,-4.504043271926492e-06,1.5262026444410597e-07,1.2776571779614877e-05,0.0
2.150000112131238,-5.934893465564528e-07,0.0,0.025927377864718437,0.0,1.913820743560791,1.0,-3.12419963169765,2.548144661038926,-0.00038607640116432334,1.2275590741390328e-05,0.0009000563699582333,0.0,-0.054527570062718196,0.04447351415224413,-6.7383043645679115e-06,2.1424947606459297e-07,1.570894710931935e-05,0.0
2.18333344720304,-9.068244253285229e-07,0.0,0.03883429989218712,0.0,1.9162795543670654,1.0,-3.573742004164329,3.2212807669839765,-0.0006926557252317128,1.6711183536024005e-05,0.0011802047188546382,0.0,-0.062373564589488444,0.056221955515038634,-1.2089122988082552e-05,2.916651746086873e-07,2.0598458191587436e-05,0.0
2.2166667822748423,-1.4084681652093423e-06,0.0,0.054574884474277496,0.0,1.9185987710952759,1.0,-3.841755446092972,3.9182955814037648,-0.0009730624142149017,1.992474901721663e-05,0.0016283102975286183,0.0,-0.06705128159074589,0.0683871589618412,-1.6983142955454908e-05,3.477524729839345e-07,2.8419375936002875e-05,0.0
2.2500001173466444,-2.1754119643446757e-06,0.0,0.07319220900535583,0.0,1.9206602573394775,1.0,-3.942970489044536,4.631324879999551,-0.001186885329057067,1.541061459462858e-05,0.0022646786335091358,0.0,-0.06881781734279815,0.08083186788552343,-2.0715056835662144e-05,2.6896596443216e-07,3.95260986543004e-05,0.0
2.2833334524184465,-3.214776825188892e-06,0.0,0.09309643507003784,0.0,1.9224872589111328,1.0,-3.411914080497707,4.864016606744673,-0.00120807600862507,6.014055361533351e-06,0.003021458902302812,0.0,-0.05954913449983984,0.08489310465937676,-2.1084903964858886e-05,1.0496506745597491e-07,5.273440605887775e-05,0.0
2.3166667874902487,-4.515929504123051e-06,0.0,0.11364906281232834,0.0,1.9241206645965576,1.0,-2.4500593931253487,5.0677551655581725,-0.0011812326836409843,-1.5642640819744074e-05,0.003837632347542677,0.0,-0.04276160327945146,0.08844901332394045,-2.0616399561703735e-05,-2.730155860113989e-07,6.697931994565903e-05,0.0
2.350000122562051,-6.066142759664217e-06,0.0,0.13466428220272064,0.0,1.9256070852279663,1.0,-1.400767593621364,5.228524370246835,-0.0008158459116285464,-5.419791901634691e-05,0.004759497234492039,0.0,-0.02444800656393072,0.09125496528157032,-1.4239197346852827e-05,-9.459321345645e-07,8.30688974814507e-05,0.0
2.383333457633853,-7.780830856063403e-06,0.0,0.15593908727169037,0.0,1.9268813133239746,1.0,-0.4508928449696542,5.344568200934466,-0.0005274945213868035,-0.0001267545101771656,0.005874615793608199,0.0,-0.007869564718404817,0.09328031220369631,-9.206516184431366e-06,-2.2122835443442007e-06,0.00010253138788812272,0.0
2.416666792705655,-9.595538358553313e-06,0.0,0.17729301750659943,0.0,1.92781662940979,1.0,0.3163780629530148,5.422349478261691,-0.0005878692518912907,-0.0002267512779847067,0.007127624991124045,0.0,0.005521838879612002,0.09463785158946321,-1.0260254016738924e-05,-3.957556383938064e-06,0.00012440052394254618,0.0
2.4500001277774572,-1.1516340236994438e-05,0.0,0.19858485460281372,0.0,1.9283980131149292,1.0,0.9193569892882992,5.4703116284250015,-0.0002869842382982185,-0.00032233740417447217,0.008375393914978494,0.0,0.01604580646430306,0.0954749490261489,-5.008819859631921e-06,-5.625849005176253e-06,0.00014617819996787273,0.0
2.4833334628492594,-1.3459118235914502e-05,0.0,0.21970418095588684,0.0,1.9286718368530273,1.0,1.4208065120918343,5.494104230221099,-0.0004026299789690558,-0.0004354732803647781,0.009585320140554913,0.0,0.024797751669779135,0.09589020826510672,-7.027218800245547e-06,-7.6004425468257505e-06,0.00016729539631040886,0.0
2.5166667979210615,-1.543224607303273e-05,0.0,0.24055761098861694,0.0,1.9286832809448242,1.0,1.8358441413829252,5.497067427484351,-0.00044858610651454507,-0.0005333389125477148,0.01074780783993888,0.0,0.03204152482058033,0.09594192581373656,-7.829304537380796e-06,-9.30852005296372e-06,0.00018758463417859316,0.0
2.5500001329928637,-1.7426909835194238e-05,0.0,0.2610672414302826,0.0,1.9284718036651611,1.0,2.1838979418812574,5.48216725337762,-0.0004450631816964615,-0.0006279762042645854,0.011882760274146602,0.0,0.038116209613355705,0.09568186871645369,-7.767817900005016e-06,-1.0960252388593472e-05,0.00020739329100904222,0.0
2.583333468064666,-1.9417699149926193e-05,0.0,0.28116703033447266,0.0,1.9280718564987183,1.0,2.4794440474611155,5.451798661461609,-0.0005978212334195899,-0.0007216822465994518,0.012963411894497585,0.0,0.04327446224717101,0.09515183679832477,-1.0433948861505403e-05,-1.2595731356350085e-05,0.00022625421985117864,0.0
2.616666803136468,-2.1415777155198157e-05,0.0,0.30080050230026245,0.0,1.9275120496749878,1.0,2.7213065224821666,5.40789615061982,-0.0006077442406996082,-0.0008009924768993732,0.014006791249148642,0.0,0.0474957587733109,0.09438559343424303,-1.0607138010241089e-05,-1.3979956005598684e-05,0.0002444646249371732,0.0
2.65000013820827,-2.3403939849231392e-05,0.0,0.3199212849140167,0.0,1.9268187284469604,1.0,2.9222560463782643,5.352423042607045,-0.0006264472916991509,-0.0008787806955219863,0.015018100600589631,0.0,0.05100298959561283,0.09341740505310567,-1.0933567830351526e-05,-1.533761653982445e-05,0.00026211530287602693,0.0
2.683333473280072,-2.536514148232527e-05,0.0,0.33849048614501953,0.0,1.9260128736495972,1.0,3.0872867295707525,5.286931946925463,-0.0007412760307755092,-0.0009496801287845664,0.0159672559238761,0.0,0.053883318384137416,0.09227436980272344,-1.2937707403147451e-05,-1.6575045088054458e-05,0.000278681188380207,0.0
2.7166668083518744,-2.7303631213726476e-05,0.0,0.35647594928741455,0.0,1.9251137971878052,1.0,3.2174665128096684,5.2128341810288585,-0.0007412622358260409,-0.0010120637954150436,0.016888188319732017,0.0,0.05615538422118903,0.09098111981945571,-1.2937466635859082e-05,-1.7663845470222804e-05,0.00029475449087617255,0.0
2.7500001434236765,-2.9203221856732853e-05,0.0,0.3738524615764618,0.0,1.9241381883621216,1.0,3.319999729936153,5.131441622752584,-0.0007551469473233417,-0.001070747848856372,0.017769518820302654,0.0,0.05794492645270842,0.08956055169091336,-1.3179800567176492e-05,-1.8688075421190294e-05,0.0003101366099093799,0.0
2.7833334784954786,-3.1048541131895036e-05,0.0,0.39059963822364807,0.0,1.9231008291244507,1.0,3.39788051291009,5.043830440139041,-0.0008141319603169464,-0.0011214226263922722,0.018589750611004523,0.0,0.05930420253963476,0.08803144809274101,-1.4209283253246532e-05,-1.957251713690741e-05,0.00032445235528665657,0.0
2.8166668135672808,-3.284322519903071e-05,0.0,0.4067020118236542,0.0,1.922013282775879,1.0,3.4535536437876067,4.9510126886440915,-0.0008243660264261171,-0.0011665962617185405,0.019380406637213937,0.0,0.06027588197834115,0.08641147272485626,-1.4387901402718328e-05,-2.0360945808446012e-05,0.0003382519061947454,0.0
2.850000148639083,-3.45690714311786e-05,0.0,0.42214855551719666,0.0,1.9208869934082031,1.0,3.4906236695765145,4.85386726827611,-0.0008395338678757109,-0.001207052408874536,0.020127070152577836,0.0,0.060922875982156795,0.08471596528620103,-1.4652630176434208e-05,-2.1067038778989473e-05,0.0003512836429423607,0.0
2.883333483710885,-3.622222720878199e-05,0.0,0.43693166971206665,0.0,1.9197304248809814,1.0,3.5109604366785296,4.753144492308937,-0.0008574896345402525,-0.0012402102768864706,0.02081705717415794,0.0,0.06127781952729823,0.08295802121382526,-1.4966017424450299e-05,-2.164575274873944e-05,0.0003633261882649627,0.0
2.916666818782687,-3.779515827773139e-05,0.0,0.45104703307151794,0.0,1.9185521602630615,1.0,3.5169274438874663,4.649539684336121,-0.0008595701195891275,-0.0012695569521959948,0.021481234812520084,0.0,0.06138196344958441,0.08114977619380313,-1.5002328738591683e-05,-2.2157948857404362e-05,0.0003749182748725023,0.0
2.9500001538544893,-3.928103615180589e-05,0.0,0.46449312567710876,0.0,1.9173580408096313,1.0,3.5104628261024224,4.543653175077259,-0.0008627576707962067,-0.0012968053019120677,0.02213257457724433,0.0,0.06126913458435241,0.07930170797379253,-1.5057962002231134e-05,-2.2633522275684697e-05,0.0003862862983161056,0.0
2.9833334889262915,-4.0672297473065555e-05,0.0,0.4772709310054779,0.0,1.916154384613037,1.0,3.4932177007176213,4.436013979194015,-0.000867447627932869,-0.0013190901777998892,0.022739411312130153,0.0,0.060968150366468375,0.07742304960143079,-1.5139817196043297e-05,-2.3022466733325478e-05,0.00039687759736191516,0.0
3.0166668239980936,-4.1964576666941866e-05,0.0,0.48938336968421936,0.0,1.9149459600448608,1.0,3.466825343822174,4.327085538588719,-0.000878778409219091,-0.001336941692474392,0.023306670692621954,0.0,0.06050751684128139,0.0755218896638053,-1.533757663631123e-05,-2.3334034440863634e-05,0.0004067781412643204,0.0
3.0500001590698957,-4.315516343922354e-05,0.0,0.5008353590965271,0.0,1.9137367010116577,1.0,3.4321062808906517,4.217276394772724,-0.0008693096591891736,-0.00134963726607279,0.023826670678161188,0.0,0.05990155487991922,0.0736053585554202,-1.517231577224086e-05,-2.3555614000584944e-05,0.0004158538531223029,0.0
3.083333494141698,-4.424047074280679e-05,0.0,0.5116333365440369,0.0,1.9125298261642456,1.0,3.390571226280735,4.106953660449794,-0.0008547986605039087,-0.0013582374338275366,0.024297730227219323,0.0,0.05917663142198052,0.07167986360168213,-1.4919051067430418e-05,-2.3705715244129122e-05,0.0004240753932263271,0.0
3.1166668292135,-4.521242226473987e-05,0.0,0.5217850804328918,0.0,1.9113284349441528,1.0,3.3434114812225633,3.9964223358061366,-0.0008645260871142291,-0.001363156783456445,0.024728978681042627,0.0,0.0583535385963143,0.06975072806005955,-1.5088826689526622e-05,-2.3791574092210334e-05,0.0004316020986396785,0.0
3.150000164285302,-4.6074826968833804e-05,0.0,0.5312994718551636,0.0,1.9101347923278809,1.0,3.2909468180035484,3.8859640893561886,-0.0008498872085460246,-0.0013635944734738748,0.025114323847696064,0.0,0.05743785748219252,0.06782286797352863,-1.483333005971182e-05,-2.3799213224117596e-05,0.00043832764055442723,0.0
3.1833334993571043,-4.682493090513162e-05,0.0,0.5401865243911743,0.0,1.908950686454773,1.0,3.2344344948997676,3.7758330246950638,-0.0008344993694821112,-0.0013611013670230582,0.02545206359999374,0.0,0.05645153137608069,0.06590071828646522,-1.4564761603279526e-05,-2.3755700307948135e-05,0.00044422231124689173,0.0
3.2166668344289064,-4.7456869651796296e-05,0.0,0.5484569072723389,0.0,1.9077774286270142,1.0,3.174426450047775,3.666216921220598,-0.0008467007761153154,-0.0013547104240574242,0.025749306136430273,0.0,0.05540419341572898,0.063987556367629,-1.4777716322403616e-05,-2.3644157310890652e-05,0.00044941017218468846,0.0
3.2500001695007086,-4.798173176823184e-05,0.0,0.556121826171875,0.0,1.906615972518921,1.0,3.1112230469742195,3.557310800986348,-0.0008241306442600484,-0.0013442219102469475,0.026003209080290003,0.0,0.05430108593363033,0.062086785993968524,-1.4383793208919952e-05,-2.3461098211256938e-05,0.0004538416145355471,0.0
3.2833335045725107,-4.8392121243523434e-05,0.0,0.563193678855896,0.0,1.9054672718048096,1.0,3.0460326122670063,3.449293546673153,-0.0008037381607075775,-0.001332336665730391,0.026211559166469552,0.0,0.053163298207183074,0.06020152925723922,-1.4027877228270543e-05,-2.3253661562038426e-05,0.00045747800953619414,0.0
3.316666839644313,-4.868964970228262e-05,0.0,0.5696847438812256,0.0,1.904331922531128,1.0,2.978752748886841,3.3422700025041174,-0.0008114054164337524,-0.0013168874076344723,0.026378433163598274,0.0,0.05198904307090723,0.05833361603433597,-1.4161696085284684e-05,-2.2984021141274253e-05,0.00046039051022205387,0.0
3.350000174716115,-4.88820078317076e-05,0.0,0.57560795545578,0.0,1.9032098054885864,1.0,2.9096434431473406,3.236373621194541,-0.0007826411597023562,-0.0012979224206304,0.026504345808201716,0.0,0.050782858141985535,0.05648537551453648,-1.3659665098432879e-05,-2.2653019675455257e-05,0.00046258810044027746,0.0
3.383333509787917,-4.896602331427857e-05,0.0,0.5809763669967651,0.0,1.9021011590957642,1.0,2.8399399201156967,3.1317305885559117,-0.0007648697967652849,-0.0012786627969407955,0.02658710219264853,0.0,0.04956630216484365,0.054659010055720506,-1.3349496302614095e-05,-2.231687582937656e-05,0.0004640324718259206,0.0
3.4166668448597193,-4.894283483736217e-05,0.0,0.5858033299446106,0.0,1.9010065793991089,1.0,2.769150756472882,3.0283909978106465,-0.0007768717122046843,-0.0012559609826169724,0.026628898741165145,0.0,0.048330798184543465,0.05285539394955217,-1.3558969243577557e-05,-2.1920654423249434e-05,0.00046476195921350507,0.0
3.4500001799315214,-4.88241457787808e-05,0.0,0.5901024341583252,0.0,1.8999253511428833,1.0,2.697521590450157,2.9264460458929684,-0.000745260654660447,-0.0012301712790283898,0.026632902158108398,0.0,0.047080633396989265,0.05107611888280138,-1.3007252209393223e-05,-2.1470539182515272e-05,0.00046483183202049495,0.0
3.4833335150033236,-4.8608413635520265e-05,0.0,0.5938873291015625,0.0,1.898857831954956,1.0,2.6260630743643647,2.82598268819625,-0.0007163999988290257,-0.0012049672266298804,0.02659746948505823,0.0,0.04583344701270286,0.04932270251338485,-1.250353874085002e-05,-2.103064548331611e-05,0.0004642134152129868,0.0
3.5166668500751257,-4.829590761801228e-05,0.0,0.5971717238426208,0.0,1.8978031873703003,1.0,2.554318240512095,2.7270140403774112,-0.0007269025694969223,-0.0011770958317426242,0.0265208966112302,0.0,0.044581263440684464,0.04759537375269941,-1.2686843178928195e-05,-2.0544197875409975e-05,0.00046287696644697353,0.0
3.550000185146928,-4.7897377953631803e-05,0.0,0.5999693274497986,0.0,1.8967608213424683,1.0,2.4824850018589344,2.6296051735626933,-0.0006977129826575582,-0.0011469909625070693,0.026409418171641937,0.0,0.04332753691381596,0.045895268306145945,-1.2177388781284485e-05,-2.0018768786367195e-05,0.00046093130063117277,0.0
3.58333352021873,-4.74127045890782e-05,0.0,0.602293848991394,0.0,1.8957308530807495,1.0,2.4110174743084984,2.533807887656857,-0.0006616730745172307,-0.0011175906024389435,0.026263301128818767,0.0,0.04208019324980109,0.04422329025261474,-1.1548373722119466e-05,-1.9505635701906534e-05,0.0004583810771406309,0.0
3.616666855290532,-4.684352097683586e-05,0.0,0.604158878326416,0.0,1.8947124481201172,1.0,2.3402245773696424,2.4396194660418637,-0.0006865484974581283,-0.0010863176264167525,0.026074869361031424,0.0,0.04084462411119304,0.042579392178176516,-1.198253175526426e-05,-1.895981930342206e-05,0.00045509232237738833,0.0
3.6500001903623343,-4.620215258910321e-05,0.0,0.6055780053138733,0.0,1.8937057256698608,1.0,2.269533593763118,2.3470804624725674,-0.0006514930483791978,-0.0010529371977041236,0.02585623389550477,0.0,0.03961083369578585,0.040964281879377513,-1.1370698748071708e-05,-1.8377220916659434e-05,0.0004512764136423177,0.0
3.6833335254341364,-4.549003278953023e-05,0.0,0.6065647602081299,0.0,1.8927093744277954,1.0,2.1993684134714986,2.2562152616414277,-0.0006054217903968693,-0.001020446389498777,0.025606655923521605,0.0,0.038386220279441656,0.03937838494938824,-1.0566603605744358e-05,-1.7810149336842145e-05,0.0004469204562907613,0.0
3.7166668605059385,-4.47066813649144e-05,0.0,0.6071325540542603,0.0,1.8917232751846313,1.0,2.130787716156214,2.1670272624730433,-0.0006367200749112707,-0.0009879614594480197,0.025316265796333736,0.0,0.03718926130797631,0.037821760710633964,-1.1112861720746615e-05,-1.7243180350176383e-05,0.00044185219245604785,0.0
3.7500001955777407,-4.3863372411578894e-05,0.0,0.6072943806648254,0.0,1.8907464742660522,1.0,2.0617903141239595,2.0795147199739574,-0.0005881389229967595,-0.0009526471038637624,0.02500061541850259,0.0,0.03598502946719124,0.03629437870723345,-1.0264960665426849e-05,-1.6626828572011048e-05,0.00043634305407773026,0.0
3.783333530649543,-4.296311453799717e-05,0.0,0.6070635318756104,0.0,1.8897794485092163,1.0,1.9943435226785637,1.9937109856971593,-0.0005611931056473762,-0.0009196132536499186,0.024655924966299595,0.0,0.03480786088656314,0.034796821033597006,-9.794667433039099e-06,-1.605027912116884e-05,0.0004303270707865999,0.0
3.816666865721345,-4.200303737889044e-05,0.0,0.6064527630805969,0.0,1.8888211250305176,1.0,1.928023100288577,1.9095993158695048,-0.0005789047861504224,-0.0008863999381921649,0.024277261804387374,0.0,0.033650351154544504,0.03332879545575406,-1.010379457387854e-05,-1.547059741092751e-05,0.0004237181518552192,0.0
3.850000200793147,-4.1000734199769795e-05,0.0,0.6054748892784119,0.0,1.8878709077835083,1.0,1.8619593131760372,1.8271633185340346,-0.0005491396112818851,-0.0008504921816069931,0.023870680751303008,0.0,0.03249732055309409,0.03189001588008483,-9.584294269990694e-06,-1.4843888831511588e-05,0.0004166219738026712,0.0
3.8833335358649492,-3.9954229578142986e-05,0.0,0.604142427444458,0.0,1.8869284391403198,1.0,1.7973328918205584,1.746441543504138,-0.0005026203833603418,-0.0008175998114889995,0.023445816763247206,0.0,0.031369376716659805,0.030481155127758997,-8.772380577274085e-06,-1.4269808674168004e-05,0.0004092066983379436,0.0
3.9166668709367514,-3.88621338061057e-05,0.0,0.6024677753448486,0.0,1.8859931230545044,1.0,1.7338815240121843,1.667389045222305,-0.0005199348479327904,-0.0007846795866319938,0.02298399995924875,0.0,0.03026194143350974,0.029101428750813847,-9.074574992283224e-06,-1.3695242359916373e-05,0.0004011464745671332,0.0
3.9500002060085535,-3.773733624257147e-05,0.0,0.6004629135131836,0.0,1.8850648403167725,1.0,1.6712581892798055,1.590009471780033,-0.0004972818581988028,-0.0007505929751135687,0.02250034140948199,0.0,0.029168958053851207,0.02775090042045744,-8.679205736004668e-06,-1.3100318758071631e-05,0.0003927050404182824,0.0
3.9833335410803556,-3.658360947156325e-05,0.0,0.5981398820877075,0.0,1.884142518043518,1.0,1.609391720077989,1.5142979810455421,-0.0004442060568741514,-0.0007179785795731952,0.021999275216218146,0.0,0.02808918446969584,0.026429485625547394,-7.752858249755132e-06,-1.253109017234436e-05,0.0003839597855753941,0.0
4.016666876152158,-3.539511453709565e-05,0.0,0.5955105423927307,0.0,1.8832261562347412,1.0,1.5495732479547846,1.4402518952446308,-0.00046933540735154717,-0.0006877528711496544,0.021469298070315404,0.0,0.02704515517763348,0.02513713763010727,-8.191448154473297e-06,-1.2003552041605788e-05,0.0003747099394190689,0.0
4.05000021122396,-3.418547930778004e-05,0.0,0.5925861597061157,0.0,1.882315754890442,1.0,1.489949650918238,1.3678215885851959,-0.0004563314260343074,-0.0006544027296075494,0.020913776531546108,0.0,0.026004527097463405,0.023872990300670954,-7.964485864619635e-06,-1.1421482265689917e-05,0.0003650142595017993,0.0
4.083333546295762,-3.29601280100178e-05,0.0,0.5893781185150146,0.0,1.8814102411270142,1.0,1.4317464331728942,1.2970403783871425,-0.0003996135001047193,-0.0006238457522119083,0.020352133487023485,0.0,0.02498868931255197,0.022637625134168733,-6.9745713122460565e-06,-1.0888162400678496e-05,0.00035521173915395443,0.0
4.116666881367564,-3.1714032957097515e-05,0.0,0.5858975648880005,0.0,1.880509376525879,1.0,1.3749162852805865,1.2278650295444522,-0.0004044137263300026,-0.0005951637101956947,0.019761023178860356,0.0,0.02399681611743588,0.02143028753564814,-7.0583510647178295e-06,-1.0387566331300218e-05,0.00034489491803402954,0.0
4.150000216439366,-3.0453891668003052e-05,0.0,0.5821553468704224,0.0,1.8796132802963257,1.0,1.3191028414126176,1.1602819043641461,-0.00040438600771798593,-0.0005658186370710575,0.019150932156633434,0.0,0.023022687755062787,0.020250739482464315,-7.057867283674055e-06,-9.875398186036799e-06,0.00033424682095931183,0.0
4.1833335515111685,-2.918733298429288e-05,0.0,0.5781619548797607,0.0,1.8787215948104858,1.0,1.2640639107312182,1.0942756197491017,-0.00035884812361803,-0.0005369584429171147,0.018529809562392828,0.0,0.02206207719789544,0.019098712488923312,-6.263081271738249e-06,-9.371692775285677e-06,0.00032340618663128447,0.0
4.216666886582971,-2.7911328288610093e-05,0.0,0.57392817735672,0.0,1.8778332471847534,1.0,1.2106467616914807,1.0298479514602414,-0.00034638581647037395,-0.0005115244409412351,0.017898452090440865,0.0,0.021129772070123492,0.01797423754789996,-6.0455729796168286e-06,-8.927785698847835e-06,0.000312386919988655,0.0
4.250000221654773,-2.6627072656992823e-05,0.0,0.5694639086723328,0.0,1.876948356628418,1.0,1.158455627994732,0.9669472770534535,-0.00037423990956974364,-0.00048516544311889994,0.01723518415892919,0.0,0.020218864946766668,0.016876413677776578,-6.531718614357862e-06,-8.46773439932207e-06,0.000300810710760884,0.0
4.283333556726575,-2.5351455406052992e-05,0.0,0.5647791624069214,0.0,1.8760676383972168,1.0,1.1065886279103685,0.9055731083652862,-0.0003142028381164786,-0.00045870916141732516,0.01657614080553234,0.0,0.019313615022162348,0.015805232358493647,-5.4838740442432895e-06,-8.005985175794463e-06,0.00028930823433072437,0.0
4.316666891798377,-2.4071394364000298e-05,0.0,0.5598838329315186,0.0,1.8751896619796753,1.0,1.0567776466813703,0.8457220046777747,-0.00030488414660138457,-0.0004364038214666223,0.015903745935168676,0.0,0.018444249396067237,0.014760633538194054,-5.32123219532724e-06,-7.616683552878068e-06,0.00027757272996935804,0.0
4.350000226870179,-2.2794800315750763e-05,0.0,0.5547874569892883,0.0,1.874314546585083,1.0,1.0076699564702285,0.7873416741601322,-0.0003176316765571793,-0.0004134507365658828,0.015209038887644657,0.0,0.017587158513833426,0.013741704552258666,-5.543718564552465e-06,-7.216076647870369e-06,0.0002654478046532552,0.0
4.383333561941981,-2.1529063815250993e-05,0.0,0.5494992733001709,0.0,1.8734421730041504,1.0,0.959614155398678,0.7304343214176446,-0.000286707156605351,-0.00039092975529791605,0.014513225837621314,0.0,0.01674842656045145,0.012748483878308434,-5.003983871794383e-06,-6.823011373964381e-06,0.00025330357595200383,0.0
4.4166668970137835,-2.027153459494002e-05,0.0,0.5440284013748169,0.0,1.872572660446167,1.0,0.9126785120327691,0.6749769134969474,-0.0002569929634966971,-0.00037086397146088003,0.013811173404371786,0.0,0.015929245047174505,0.011780569515470685,-4.4853733674749635e-06,-6.472797379014641e-06,0.00024105044947016186,0.0
4.450000232085586,-1.9019660612684675e-05,0.0,0.5383840799331665,0.0,1.8717050552368164,1.0,0.8670508362838779,0.6209526024245056,-0.00026975818446385135,-0.00035258132993470215,0.013100068616631228,0.0,0.015132891875323986,0.010837667411134946,-4.70816850309642e-06,-6.153705088420996e-06,0.00022863932959739372,0.0
4.483333567157388,-1.778094156179577e-05,0.0,0.5325747728347778,0.0,1.870839238166809,1.0,0.8224869563299205,0.5683254528922853,-0.00027990951987432654,-0.00033331525453441903,0.012372040465121246,0.0,0.01435510544266393,0.00991915037585831,-4.8853427294835024e-06,-5.817448638748571e-06,0.0002159328413063364,0.0
4.51666690222919,-1.656451786402613e-05,0.0,0.5266088843345642,0.0,1.8699761629104614,1.0,0.7784406023704188,0.5170881012491242,-0.0002254211699512979,-0.0003150400445779836,0.011655260865861366,0.0,0.013586351542571783,0.009024889889683021,-3.934341619347854e-06,-5.498486053515524e-06,0.00020342267728812598,0.0
4.550000237300992,-1.535789306217339e-05,0.0,0.5204948782920837,0.0,1.869114875793457,1.0,0.7362040972391465,0.46723272976165375,-0.00022292191577388866,-0.00030064122020734464,0.010935263113151008,0.0,0.012849185463495602,0.008154749507421758,-3.89072140510784e-06,-5.247179159831474e-06,0.00019085634589637032,0.0
4.583333572372794,-1.4167580957291648e-05,0.0,0.5142408013343811,0.0,1.8682552576065063,1.0,0.694860748827855,0.4187053003855711,-0.0002478042456114283,-0.00028537594087335474,0.01019083390598822,0.0,0.012127607909919399,0.007307786087280098,-4.324999986340133e-06,-4.980749774216702e-06,0.00017786360518336872,0.0
4.616666907444596,-1.3001829756831285e-05,0.0,0.5078545808792114,0.0,1.8673979043960571,1.0,0.6539119662331725,0.37150583871702775,-0.0001993952679425317,-0.0002702529392620042,0.009464276770137081,0.0,0.011412916828958841,0.006484000075995161,-3.480103938493478e-06,-4.716803603314227e-06,0.00016518279095890663,0.0
4.650000242516398,-1.1853361684188712e-05,0.0,0.5013440847396851,0.0,1.8665417432785034,1.0,0.6146975481759412,0.32562912123996335,-0.00018939739463020902,-0.0002589843974497248,0.008741447533137225,0.0,0.01072849611960664,0.005683300306013161,-3.3056081309961753e-06,-4.520130446791303e-06,0.0001525670408435807,0.0
4.683333577588201,-1.0721414582803845e-05,0.0,0.49471646547317505,0.0,1.865687370300293,1.0,0.5764574274712547,0.2810212730045774,-0.00022508541998348959,-0.00024748166919526986,0.007996968825124101,0.0,0.010061080106949805,0.004904746482075733,-3.928481676946134e-06,-4.319369965788884e-06,0.0001395734361777582,0.0
4.716666912660003,-9.619078809919301e-06,0.0,0.4879792332649231,0.0,1.8648344278335571,1.0,0.5386886856463552,0.2376749660363647,-0.00020002587341301154,-0.00023500429663203206,0.007266110024558657,0.0,0.009401891207769617,0.004148210706900261,-3.491110080234439e-06,-4.101598732562381e-06,0.0001268175437407146,0.0
4.750000247731805,-8.542075192963239e-06,0.0,0.4811396300792694,0.0,1.8639827966690063,1.0,0.5022653586299932,0.19558430597422086,-0.00016554818850080826,-0.0002254010523450081,0.006547122522181336,0.0,0.008766184226803498,0.00341359010447817,-2.8893609600513193e-06,-3.933990500880477e-06,0.0001142688445435398,0.0
4.783333582803607,-7.483590252377326e-06,0.0,0.4742044508457184,0.0,1.8631327152252197,1.0,0.4669245241059858,0.15471099445027192,-0.0001757922259765804,-0.0002176175123814678,0.005818616947444785,0.0,0.008149370303957085,0.0027002162421919194,-3.0681531427012325e-06,-3.798142101056139e-06,0.00010155402364525337,0.0
4.816666917875409,-6.450183263950748e-06,0.0,0.46718040108680725,0.0,1.8622835874557495,1.0,0.4322684112617559,0.11503548316076627,-0.00018117389228016636,-0.0002094389188562985,0.005095039133539074,0.0,0.007544507028882577,0.0020077479377778647,-3.16208093894244e-06,-3.655398715859645e-06,8.892520839821589e-05,0.0
4.850000252947211,-5.44563135917997e-06,0.0,0.4600740969181061,0.0,1.8614360094070435,1.0,0.3986120079861664,0.07654701855482117,-0.00016232571373099236,-0.00020200771069268166,0.004383302702760127,0.0,0.0069570919773445355,0.0013359975063668209,-2.8331181652555856e-06,-3.5256996660034498e-06,7.650306427473055e-05,0.0
4.883333588019013,-4.464349331101403e-06,0.0,0.4528920352458954,0.0,1.8605892658233643,1.0,0.36594511149800474,0.039220352901054606,-0.0001536119997560574,-0.0001963023531289306,0.0036758761840789403,0.0,0.006386947077217941,0.0006845242919175127,-2.681035166315928e-06,-3.4261223915124313e-06,6.415614230782267e-05,0.0
4.9166669230908155,-3.5077709981123917e-06,0.0,0.44564029574394226,0.0,1.859743595123291,1.0,0.33416181832080105,0.003033340508718996,-0.00016541607588739038,-0.0001913154268360966,0.0029741168743327483,0.0,0.005832223964149087,5.2941779211266244e-05,-2.887055159963763e-06,-3.339084108148204e-06,5.190813179622889e-05,0.0
4.950000258162618,-2.580014552222565e-06,0.0,0.43832507729530334,0.0,1.8588991165161133,1.0,0.30330993601602163,-0.03203179172704572,-0.00016937974638155538,-0.0001861207594977854,0.0022780029344167175,0.0,0.0052937570374929094,-0.0005590602309500285,-2.9562342605510927e-06,-3.248420059548863e-06,3.975865157566417e-05,0.0
4.98333359323442,-1.6829196738399332e-06,0.0,0.4309520721435547,0.0,1.858055830001831,1.0,0.27325894450321353,-0.06599871422273623,-0.00014856370734460568,-0.0001815556604653871,0.0015904368648083985,0.0,0.004769268292105537,-0.0011518948652695575,-2.592925842132651e-06,-3.1687440507539052e-06,2.7758359836002487e-05,0.0
5.016666928306222,-8.122741519400734e-07,0.0,0.4235271215438843,0.0,1.8572133779525757,1.0,0.24402915599682426,-0.0988824442992122,-0.00013317554984454047,-0.00017880642358005018,0.0009184525033456704,0.0,0.004259112243007448,-0.0017258242254411498,-2.3243518279410536e-06,-3.1207608151875023e-06,1.6030020206566184e-05,0.0
5.050000263378024,3.489108024723464e-08,0.0,0.41605573892593384,0.0,1.8563719987869263,1.0,0.2158068611073302,-0.13070207787984772,-0.00014711426178368566,-0.00017702386279973826,0.00025495616852158094,0.0,0.0037665402747170075,-0.0022811815982013922,-2.567628244766181e-06,-3.08964926045414e-06,4.4498245889711106e-06,0.0
5.083333598449826,8.534902349310869e-07,0.0,0.40854331851005554,0.0,1.855531930923462,1.0,0.18842811028715195,-0.16148362816850964,-0.00015891572946339743,-0.00017470627936545116,-0.00040616415472492367,0.0,0.0032886909278217994,-0.0028184209996067536,-2.7736027123448467e-06,-3.0491997988361522e-06,-7.088901803529601e-06,0.0
5.116666933521628,1.6406223721787683e-06,0.0,0.4009951055049896,0.0,1.8546924591064453,1.0,0.16168068454758996,-0.19124563996090188,-0.00014320532933378212,-0.0001725567319870347,-0.0010525250201919457,0.0,0.0028218602822337635,-0.0033378660974013774,-2.4994045032773157e-06,-3.011683119655173e-06,-1.837002706196925e-05,0.0
5.1500002685934305,2.400519406364765e-06,0.0,0.3934161961078644,0.0,1.8538542985916138,1.0,0.1357605404068821,-0.2199993030384729,-0.00013286783554121366,-0.00017190449083955697,-0.0016766963258437171,0.0,0.002369468424386895,-0.0038397121901141175,-2.3189812001925206e-06,-3.0002993641147002e-06,-2.9263871442064554e-05,0.0
5.183333603665233,3.135528686470934e-06,0.0,0.385811448097229,0.0,1.8530172109603882,1.0,0.11082953025423287,-0.2477671814885131,-0.0001496962326195561,-0.00017187877522283147,-0.002292159758694248,0.0,0.0019343402113750317,-0.004324353095360898,-2.61269213704259e-06,-2.9998505419336593e-06,-4.000573477093334e-05,0.0
5.216666938737035,3.840252247755416e-06,0.0,0.3781856596469879,0.0,1.8521803617477417,1.0,0.08664919032942897,-0.2745758521906474,-0.00015942653551807813,-0.00017114638740903498,-0.002904002668233948,0.0,0.0015123136654357655,-0.004792252667196082,-2.7825179598381472e-06,-2.9870679631814274e-06,-5.0684408047382936e-05,0.0
5.250000273808837,4.514005922828801e-06,0.0,0.3705434203147888,0.0,1.8513449430465698,1.0,0.06304683106655566,-0.3004406566294539,-0.0001400246564391392,-0.00017061050689799663,-0.0034980429240378482,0.0,0.0011003747850600444,-0.0052436786650377,-2.4438912888368577e-06,-2.9777150838665385e-06,-6.105236640055035e-05,0.0
5.283333608880639,5.160030468687182e-06,0.0,0.3628891706466675,0.0,1.8505109548568726,1.0,0.040206790118788735,-0.32537411015672096,-0.00012494104617910765,-0.00017160116368084743,-0.0040675637327975064,0.0,0.0007017408692311855,-0.005678849522981503,-2.180632626711709e-06,-2.9950053064844996e-06,-7.099237967202735e-05,0.0
5.316666943952441,5.7829129218589514e-06,0.0,0.3552272915840149,0.0,1.849677562713623,1.0,0.018268055575718582,-0.34939602286799787,-0.0001388438105514061,-0.0001733448815642784,-0.00462381936735521,0.0,0.00031883771773359753,-0.006098110992419963,-2.42328164013728e-06,-3.0254389247762765e-06,-8.070087197782963e-05,0.0
5.350000279024243,6.377865702233976e-06,0.0,0.34756192564964294,0.0,1.8488450050354004,1.0,-0.0029312738624713134,-0.3725323777985301,-0.00015609889326707323,-0.00017438445925550402,-0.005173931014738363,0.0,-5.116038017777586e-05,-0.006501916562867775,-2.7244396462296363e-06,-3.0435829783184444e-06,-9.030213147823569e-05,0.0
5.3833336140960455,6.943805146875093e-06,0.0,0.33989715576171875,0.0,1.8480137586593628,1.0,-0.023550768941436852,-0.3947992570346122,-0.00015090719492372675,-0.00017501566249418144,-0.005708764658147752,0.0,-0.00041103845940449266,-0.0068905469196813675,-2.633827416367905e-06,-3.0545995530826174e-06,-9.963673950616681e-05,0.0
5.416666949167848,7.48068896427867e-06,0.0,0.3322368264198303,0.0,1.8471835851669312,1.0,-0.043519554192129266,-0.416209300410562,-0.0001400796455567732,-0.00017637858892377507,-0.0062201131084462236,0.0,-0.0007595595096527566,-0.007264222669586493,-2.444851029992338e-06,-3.0783871067414766e-06,-0.00010856145358884572,0.0
5.45000028423965,7.99355620983988e-06,0.0,0.3245849013328552,0.0,1.8463538885116577,1.0,-0.06272710667550498,-0.43677892911874006,-0.00014629493679055956,-0.00017834695837063986,-0.006711643385186967,0.0,-0.0010947945417372762,-0.007623230416456949,-2.5533283259922503e-06,-3.112741634484927e-06,-0.00011714027529121058,0.0
5.483333619311452,8.478414201817941e-06,0.0,0.3169448673725128,0.0,1.8455255031585693,1.0,-0.08121556981197547,-0.4565327499314646,-0.00015869272876423124,-0.0001799287459804254,-0.007189897515611859,0.0,-0.001417479097102284,-0.007967999629487974,-2.7697106159101475e-06,-3.140349036342936e-06,-0.00012548738452838735,0.0
5.516666954383254,8.934852303355001e-06,0.0,0.30932027101516724,0.0,1.8446979522705078,1.0,-0.09908077581739114,-0.4754861071073675,-0.00015564215256226753,-0.0001811065658435592,-0.007654114256656598,0.0,-0.0017292857634438512,-0.008298798116513973,-2.7164680171028972e-06,-3.1609058709500097e-06,-0.00013358949510249593,0.0
5.550000289455056,9.364531251776498e-06,0.0,0.30171456933021545,0.0,1.843870997428894,1.0,-0.11633362452876832,-0.49365596932721295,-0.00014239316202592885,-0.0001827774374000352,-0.008099905689079773,0.0,-0.002030404778805844,-0.008615922036884003,-2.4852295096782177e-06,-3.1900680809884383e-06,-0.00014137002337546214,0.0
5.583333624526858,9.77057425188832e-06,0.0,0.29413101077079773,0.0,1.8430451154708862,1.0,-0.1329476348888457,-0.5110580332196797,-0.00013959980328299938,-0.00018517437304265606,-0.008526819543953616,0.0,-0.002320373961549643,-0.008919645348449967,-2.4364762024247287e-06,-3.2319024999105784e-06,-0.00014882107576539194,0.0
5.6166669595986605,1.0154167284781579e-05,0.0,0.28657278418540955,0.0,1.842220664024353,1.0,-0.1489503168726128,-0.5277098652835047,-0.00014946256242662776,-0.00018753631941883256,-0.008935530945114473,0.0,-0.0025996734513159562,-0.009210274644452877,-2.60861382281222e-06,-3.2731262409304068e-06,-0.00015595443540608828,0.0
5.650000294670463,1.0512540939089376e-05,0.0,0.2790428698062897,0.0,1.8413971662521362,1.0,-0.16438185979156936,-0.5436275345878099,-0.00015496377280412079,-0.00018932044951205067,-0.009323837524319091,0.0,-0.002869004683914565,-0.009488090383056638,-2.7046280567443535e-06,-3.304265185340976e-06,-0.00016273166372036502,0.0
5.683333629742265,1.0847009434655774e-05,0.0,0.27154427766799927,0.0,1.8405742645263672,1.0,-0.1792178410606171,-0.5588266574734201,-0.00014995076536448383,-0.00019096010322784647,-0.009690853114809906,0.0,-0.003127941404823655,-0.009753365120825757,-2.6171345714957176e-06,-3.3328825412741723e-06,-0.00016913729418058091,0.0
5.716666964814067,1.1158938832522836e-05,0.0,0.2640797197818756,0.0,1.8397533893585205,1.0,-0.19341050581435093,-0.5733235645073242,-0.00014860983603704343,-0.00019294391512375902,-0.01004003232022411,0.0,-0.00337565013440806,-0.01000638387992291,-2.5937309396953297e-06,-3.367506590598077e-06,-0.0001752316209945564,0.0
5.750000299885869,1.1449989870015997e-05,0.0,0.2566520571708679,0.0,1.838932991027832,1.0,-0.20698765181940287,-0.5871368065799556,-0.00016313889360651938,-0.00019490220183054425,-0.010376984139663072,0.0,-0.003612616035220211,-0.010247470434465332,-2.84731083149449e-06,-3.4016851413295163e-06,-0.0001811125396643517,0.0
5.783333634957671,1.171599706140114e-05,0.0,0.2492637187242508,0.0,1.83811354637146,1.0,-0.22005590075710996,-0.6002854020393268,-0.00018279327060927188,-0.0001959549502283938,-0.010700547245483324,0.0,-0.003840700006653451,-0.010476956717244136,-3.190344422620776e-06,-3.4200590670670862e-06,-0.00018675978119889392,0.0
5.816666970029473,1.195566073874943e-05,0.0,0.24191732704639435,0.0,1.837295651435852,1.0,-0.2326902633713614,-0.6127798126813065,-0.0001850675750792138,-0.00019598805110671285,-0.011002439259970078,0.0,-0.004061211233163017,-0.010695025321042901,-3.2300385238140864e-06,-3.420636786379056e-06,-0.0001920287908371662,0.0
5.850000305101275,1.2167361091997009e-05,0.0,0.23461517691612244,0.0,1.8364782333374023,1.0,-0.24485138615829552,-0.6246331227432159,-0.00016527894886404342,-0.00019597256752664437,-0.011276249311397592,0.0,-0.0042734628665343265,-0.010901904608882993,-2.8846618419128996e-06,-3.4203665469268644e-06,-0.00019680767775963134,0.0
5.883333640173078,1.2358287676761393e-05,0.0,0.2273596227169037,0.0,1.8356621265411377,1.0,-0.25643365177599475,-0.6358576452987986,-0.0001418240379254374,-0.0001968783488138142,-0.011524423487054987,0.0,-0.004475611536403713,-0.011097809484442278,-2.4752964202721906e-06,-3.4361754126909303e-06,-0.00020113913424327562,0.0
5.91666697524488,1.2530929780041333e-05,0.0,0.22015292942523956,0.0,1.8348472118377686,1.0,-0.267384976809127,-0.646472189016266,-0.00013568227234569039,-0.0001986798411267227,-0.01175581568095469,0.0,-0.004666748215687948,-0.011283068220908963,-2.368102389019947e-06,-3.4676173850005513e-06,-0.00020517768989023857,0.0
5.950000310316682,1.2688377864833456e-05,0.0,0.21299706399440765,0.0,1.8340332508087158,1.0,-0.27777201454081263,-0.6564977519072522,-0.0001518624878371595,-0.00020043102255641793,-0.011977818019914481,0.0,-0.004848036223634745,-0.011458047302722435,-2.6505004230282755e-06,-3.4981812667485152e-06,-0.0002090523616522154,0.0
5.983333645388484,1.2827779755753e-05,0.0,0.20589405298233032,0.0,1.8332204818725586,1.0,-0.28771759203969277,-0.6659503770215437,-0.00017391665218789533,-0.00020111017056724198,-0.012190133622419136,0.0,-0.005021619297002467,-0.011623026733923526,-3.0354182047245733e-06,-3.5100346356457646e-06,-0.00021275796796927718,0.0
6.016666980460286,1.2946618880960159e-05,0.0,0.198845773935318,0.0,1.8324089050292969,1.0,-0.2973037327047537,-0.6748411442285378,-0.00018074148782016165,-0.00020062389647160727,-0.012385368369504813,0.0,-0.005188929014167098,-0.011778199894713914,-3.1545340574150493e-06,-3.501547551609781e-06,-0.00021616545712022062,0.0
6.050000315532088,1.3042340469837654e-05,0.0,0.1918541043996811,0.0,1.8315980434417725,1.0,-0.306520191254054,-0.6831799907005565,-0.00016849588809270366,-0.00019979027438677058,-0.012556066688644351,0.0,-0.005349786561225969,-0.011923740221468951,-2.9408080232895873e-06,-3.4869981015120416e-06,-0.00021914470481682562,0.0
6.08333365060389,1.3119315553922206e-05,0.0,0.1849207729101181,0.0,1.8307886123657227,1.0,-0.3152943941902119,-0.690976529829088,-0.00015120298966949367,-0.00019939788286650744,-0.012700415228333498,0.0,-0.005502925291700078,-0.012059815499522397,-2.6389900085916375e-06,-3.4801495775265437e-06,-0.00022166406210484695,0.0
6.116666985675693,1.3180555470171385e-05,0.0,0.17804744839668274,0.0,1.8299801349639893,1.0,-0.32356493204307313,-0.69824553348151,-0.00014415435821680644,-0.0001994991544169558,-0.012822499599353585,0.0,-0.0056472734081433286,-0.012186683546596654,-2.5159681819826143e-06,-3.481917099520467e-06,-0.00022379483634437383,0.0
6.150000320747495,1.322798379987944e-05,0.0,0.17123568058013916,0.0,1.8291730880737305,1.0,-0.3313282586942774,-0.7050050882691127,-0.00015336576595989228,-0.00019951791760805984,-0.012926925252848704,0.0,-0.005782769019114669,-0.012304660033609267,-2.676737575843162e-06,-3.4822445789834133e-06,-0.00022561740782141038,0.0
