time,x,x_target,y,y_target,z,z_target,roll_deg,roll_target_deg,pitch_deg,pitch_target_deg,yaw_deg,yaw_target_deg,roll_rad,roll_target_rad,pitch_rad,pitch_target_rad,yaw_rad,yaw_target_rad
0.01666666753590107,0.0,0.0,0.0,0.0,0.19727498292922974,1.0,0.0,-0.0,0.0,0.0,0.0,0.0,0.0,-0.0,0.0,0.0,0.0,0.0
0.05000000260770321,-7.643204125162839e-11,0.0,5.34493506149102e-17,0.0,0.18413496017456055,1.0,1.6570547147626871e-12,2.9758004409036796e-14,6.486596239545602e-08,1.32632831645035e-10,3.992330349923824e-06,0.0,2.892106065830438e-14,5.193751557606816e-16,1.1321246162755357e-09,2.3148796084491876e-12,6.967930943346807e-08,0.0
0.08333333767950535,-7.69042340920123e-09,0.0,-2.9381091337654652e-08,0.0,0.18249939382076263,1.0,5.849665593951949e-06,0.00022768207140958996,1.8297176599740319e-07,-2.8798322499475212e-05,5.4425020780558475e-06,0.0,1.020959247550912e-07,3.973801793858192e-06,3.193459754843292e-09,-5.026255466670054e-07,9.498958080870797e-08,0.0
0.11666667275130749,-1.6100312194566868e-09,0.0,2.409201194097932e-08,0.0,0.18249937891960144,1.0,-4.846485054669924e-06,-0.0001287924164684945,-8.345499584197364e-08,1.0856876303461309e-05,3.5689780680229323e-06,0.0,-8.458712135268756e-08,-2.247851718974997e-06,-1.4565644546806174e-09,1.894882379771509e-07,6.229041821846632e-08,0.0
0.15000000782310963,8.327340594860289e-09,0.0,2.8116495798258256e-08,0.0,0.18249936401844025,1.0,-6.927741092631199e-06,-0.00012752053510452254,4.258827754485378e-07,9.58291565445769e-06,4.040445551842373e-06,0.0,-1.209118917921239e-07,-2.2256532014789295e-06,7.433056659108654e-09,1.672534301111939e-07,7.051907812720864e-08,0.0
0.18333334289491177,-7.991688200092995e-09,0.0,6.242461658700904e-09,0.0,0.18249937891960144,1.0,-2.069884220926853e-06,-0.00011385936626514654,8.283889021481647e-08,9.97330887348833e-06,4.300210484259158e-06,0.0,-3.6126294790251296e-08,-1.987220825560966e-06,1.44581138294666e-09,1.7406707716073798e-07,7.50528314791021e-08,0.0
0.2166666779667139,8.368338910713646e-09,0.0,3.9665128070964784e-08,0.0,0.18249937891960144,1.0,-1.032924633540112e-05,-0.00012658013017704473,-1.9249112177586247e-07,1.2004411110513839e-05,4.7036949575528285e-06,0.0,-1.8027935780230807e-07,-2.2092400391924633e-06,-3.3596038558461547e-09,2.0951649864145537e-07,8.209496401875177e-08,0.0
0.25000001303851604,6.796540663600581e-09,0.0,2.8558051923255334e-08,0.0,0.18249937891960144,1.0,-4.8487143873015865e-06,-0.00012588266895856808,1.3330793887516855e-07,1.0540451892609077e-05,3.954921321675169e-06,0.0,-8.462603054723222e-08,-2.197067044525074e-06,2.3266624524190374e-09,1.8396559017409615e-07,6.902639872055748e-08,0.0
0.2833333481103182,5.1282076363179385e-09,0.0,3.2848735287416275e-08,0.0,0.18249939382076263,1.0,-6.163078731287444e-06,-0.00012619381754817207,1.0607914234521248e-06,8.047186970734293e-06,3.8236878183293535e-06,0.0,-1.0756601592060076e-07,-2.2024976118766003e-06,1.851430301615697e-08,1.4044990816290196e-07,6.6735941998246e-08,0.0
0.3166666831821203,6.3664336025226476e-09,0.0,3.415346583324208e-08,0.0,0.18249937891960144,1.0,-7.784907587835896e-06,-0.00012576984672562329,7.018013162702302e-07,8.762498476577593e-06,4.756552963330735e-06,0.0,-1.3587226937122604e-07,-2.195097925090736e-06,1.2248743663745567e-08,1.5293444911726623e-07,8.301751025561443e-08,0.0
0.35000001825392246,1.0825704777062128e-09,0.0,3.9648714533768725e-08,0.0,0.18249937891960144,1.0,-9.37888475138517e-06,-0.00012532728295102402,8.335851578704051e-07,8.741608540467881e-06,4.27174318090876e-06,0.0,-1.6369241907676103e-07,-2.1873737300739246e-06,1.4548805600595293e-08,1.525698509516205e-07,7.455598330647365e-08,0.0
0.3833333533257246,2.7898034993256715e-09,0.0,4.296574829254496e-08,0.0,0.18249936401844025,1.0,-1.0430245671478025e-05,-0.00012531847759697344,3.156940325754109e-07,1.0407788908633736e-05,3.4839553462359068e-06,0.0,-1.8204212875917834e-07,-2.187220047653938e-06,5.509900297339154e-09,1.8165018430820598e-07,6.08064917842756e-08,0.0
0.41666668839752674,3.549037508321362e-09,0.0,-1.3801852105643775e-08,0.0,0.18249936401844025,1.0,2.377116443422107e-06,-0.00011179158417394358,1.8234432923209004e-08,6.132564872138851e-06,4.4632283151103525e-06,0.0,4.148850864101327e-08,-1.9511312198557007e-06,3.182508917440515e-10,1.0703344861096801e-07,7.789802936691463e-08,0.0
0.4500000234693289,9.707790127322369e-12,0.0,-9.96007543108135e-09,0.0,0.18249937891960144,1.0,7.223132281031895e-07,-0.00011257071887512126,-4.396689210405418e-08,7.848238359553363e-06,4.775834194765647e-06,0.0,1.2606744061109493e-08,-1.9647296857077934e-06,-7.673670290848427e-10,1.3697759985552474e-07,8.335403122799268e-08,0.0
0.483333358541131,9.570854109242077e-10,0.0,-9.793879041097853e-10,0.0,0.18249937891960144,1.0,-9.293912600936335e-07,-0.00011052716808097173,-5.2849764769567355e-08,1.044248184666033e-05,5.688524945531201e-06,0.0,-1.6220937527892886e-08,-1.9290629959181392e-06,-9.224024041334526e-10,1.822556903039604e-07,9.928348988135054e-08,0.0
0.5166666936129332,-2.949059219048422e-09,0.0,1.0259135763135419e-08,0.0,0.18249937891960144,1.0,-2.634611497836932e-06,-0.00011145290084835547,1.3075577042719765e-07,8.757168377322184e-06,4.964470294861523e-06,0.0,-4.598264514815392e-08,-1.945220080702584e-06,2.2821187099364314e-09,1.5284142133580124e-07,8.66463522627873e-08,0.0
0.5500000286847353,-2.1045747367054446e-09,0.0,5.873705966052967e-09,0.0,0.18249936401844025,1.0,-3.4845355116212737e-06,-0.0001116281227742888,-7.63429179710417e-08,1.102936811808419e-05,5.218539318365027e-06,0.0,-6.081661758045636e-08,-1.9482782802318067e-06,-1.3324352791746266e-09,1.9249878807505986e-07,9.10806932502503e-08,0.0
0.5833333637565374,-5.571229033662917e-10,0.0,-5.197902996911807e-09,0.0,0.18249937891960144,1.0,1.7709814858654224e-06,-0.0001097189923504966,-2.0904936098757616e-07,1.055331701272784e-05,5.776394965722993e-06,0.0,3.090945792021304e-08,-1.914957668486638e-06,-3.6485996484233887e-09,1.8419012887883313e-07,1.0081711104749122e-07,0.0
0.6166666988283396,-6.6151564226402115e-09,0.0,-7.531797407978047e-09,0.0,0.18249937891960144,1.0,4.545355699732463e-07,-0.00011060846214415417,1.710373502945207e-07,4.91648376338563e-06,4.616444539969729e-06,0.0,7.933142263462223e-09,-1.930481844982997e-06,2.9851649065262796e-09,8.580882929192108e-08,8.057215695818674e-08,0.0
0.6500000339001417,-7.1908563548106486e-09,0.0,9.90015847079917e-10,0.0,0.18249937891960144,1.0,-1.063335259946137e-06,-0.00010917505528021365,-1.1408037657419797e-07,1.0447192015777615e-05,5.533961184194507e-06,0.0,-1.8558701338609873e-08,-1.9054641756865485e-06,-1.9910781831347638e-09,1.8233789826338278e-07,9.658584334175853e-08,0.0
0.6833333689719439,-7.86742493374959e-09,0.0,4.057605096363659e-08,0.0,0.18249937891960144,1.0,-9.16694441832173e-06,-0.00012170386858752654,1.7370073306688465e-07,1.01969416835554e-05,4.211612126431186e-06,0.0,-1.5999336244703057e-07,-2.1241332192668387e-06,3.0316497051449247e-09,1.7797020601189544e-07,7.35064984231439e-08,0.0
0.716666704043746,7.50995887699446e-09,0.0,4.466173919581706e-08,0.0,0.18249936401844025,1.0,-1.0210067016086376e-05,-0.00012198586300452089,2.5836882440586343e-07,1.0089132584551105e-05,4.016358425188681e-06,0.0,-1.781992862799801e-07,-2.129054950315632e-06,4.509386670389399e-09,1.7608858227066197e-07,7.009867845975684e-08,0.0
0.7500000391155481,-7.920110789427781e-09,0.0,4.483734272753281e-09,0.0,0.18249936401844025,1.0,-3.928859690183321e-06,-0.00011005602181505357,4.5731802814772187e-07,7.4106950717177855e-06,4.862613145736592e-06,0.0,-6.857153744258328e-08,-1.9208399423193904e-06,7.981705319905852e-09,1.2934102886279267e-07,8.48686096438624e-08,0.0
0.7833333741873503,7.223661668831483e-10,0.0,-9.69244418058679e-09,0.0,0.18249936401844025,1.0,1.7985091145667788e-06,-0.00010906920242976252,-1.5980370732879822e-07,8.652865124409137e-06,4.4969851420579125e-06,0.0,3.13899056763182e-08,-1.9036166949235552e-06,-2.7891008497809217e-09,1.510209861519282e-07,7.84871971421755e-08,0.0
0.8166667092591524,8.937568463096568e-10,0.0,-6.57295462502816e-09,0.0,0.18249936401844025,1.0,6.490462668366687e-07,-0.00010943162694175894,-2.428088147794852e-07,1.0857391497176289e-05,5.092242083599999e-06,0.0,1.132799435407755e-08,-1.9099421959478265e-06,-4.237813270767086e-09,1.8949722980376285e-07,8.887639066743632e-08,0.0
0.8500000443309546,-1.9271664264408628e-09,0.0,-3.940767712151683e-09,0.0,0.18249936401844025,1.0,-1.0876171822995945e-06,-0.00010730158547799242,9.194140534606897e-08,6.940428612117528e-06,5.148293126476247e-06,0.0,-1.8982500832391316e-08,-1.8727659592011013e-06,1.60468024219962e-09,1.2113333078107127e-07,8.985466591480336e-08,0.0
0.8833333794027567,-4.276070164621615e-09,0.0,9.828148961332772e-09,0.0,0.18249936401844025,1.0,-2.567596341065095e-06,-0.00010806692396299203,2.568201217130155e-07,8.403686064986322e-06,4.5455021850335016e-06,0.0,-4.4813010013745196e-08,-1.8861236356565697e-06,4.4823567092647e-09,1.4667199113797746e-07,7.933397928543112e-08,0.0
0.9166667144745588,-3.5344471793763432e-09,0.0,3.347339960768636e-09,0.0,0.18249936401844025,1.0,-3.5691347987208294e-06,-0.00010838214624429145,8.16626503977513e-08,1.1900229963777526e-05,4.921407315158992e-06,0.0,-6.229315368518357e-08,-1.8916253023408923e-06,1.4252821253458172e-09,2.0769819461240337e-07,8.589476148125865e-08,0.0
0.950000049546361,-7.540354118873438e-09,0.0,-1.0123813787288327e-08,0.0,0.18249936401844025,1.0,2.074947051525969e-06,-0.0001081425823781682,-1.2355272360034773e-07,7.382106449024751e-06,4.540825297391608e-06,0.0,3.621465785367659e-08,-1.8874441241082346e-06,-2.1564018266325703e-09,1.2884206326818884e-07,7.925235219733425e-08,0.0
0.9833333846181631,8.049086730466115e-09,0.0,-7.764978882107698e-09,0.0,0.18249936401844025,1.0,1.058899567425749e-06,-0.00010821749526242681,-2.033932115779493e-07,1.0820401522196901e-05,5.137654500837593e-06,0.0,1.8481283899523016e-08,-1.8887516005907127e-06,-3.5498812182406665e-09,1.8885163295014223e-07,8.966898686952177e-08,0.0
1.0166667196899652,4.323995828059424e-09,0.0,1.0698857355606606e-09,0.0,0.18249936401844025,1.0,-4.971946836273535e-07,-0.00010569954315108176,1.2712754277662546e-07,6.8096172847481296e-06,4.966215175058871e-06,0.0,-8.677684252708862e-09,-1.844805045840199e-06,2.218794191422048e-09,1.188502424195711e-07,8.667680616728387e-08,0.0
1.0500000547617674,4.923157437275449e-09,0.0,5.83149084576462e-09,0.0,0.18249936401844025,1.0,-1.4947003008997295e-06,-0.00010717796101467872,-5.1442566765727764e-08,1.1777446192185229e-05,5.22490246163249e-06,0.0,-2.608744158125024e-08,-1.8706083052802661e-06,-8.978421657389599e-10,2.055552135301011e-07,9.119175105104364e-08,0.0
1.0833333898335695,7.175374516776856e-09,0.0,8.071545209986652e-09,0.0,0.18249936401844025,1.0,-2.6999121154351032e-06,-0.00010674070138326971,-1.7504424050757188e-07,1.1656905397578152e-05,5.012835088700227e-06,0.0,-4.712235592882776e-08,-1.8629766850261223e-06,-3.0550983335099595e-09,2.0345137978123737e-07,8.749047715732096e-08,0.0
1.1166667249053717,8.226918701836894e-09,0.0,7.3219172946892286e-09,0.0,0.18249937891960144,1.0,-3.1867303597769355e-06,-0.00010653086721001575,-2.0024902015352816e-07,1.1697046030782574e-05,4.584047058652608e-06,0.0,-5.5618937151370995e-08,-1.8593143878196405e-06,-3.4950047255715474e-09,2.0415196599448991e-07,8.000671423984964e-08,0.0
1.1500000599771738,-3.1853146786886555e-09,0.0,4.021811150778376e-08,0.0,0.18249939382076263,1.0,-1.0086116390884858e-05,-0.00011718209163994771,-2.2037714266435192e-07,1.1264087054756547e-05,4.685830928952792e-06,0.0,-1.7603593976030815e-07,-2.045213323490809e-06,-3.84630673563021e-09,1.9659540633677256e-07,8.178317790201071e-08,0.0
1.183333395048976,-7.417662040154482e-09,0.0,2.484647865230727e-08,0.0,0.18249937891960144,1.0,-3.8395041416755985e-06,-0.00011678394468904629,-1.0619497675554592e-07,9.833959662308144e-06,4.28790800202801e-06,0.0,-6.701198891619802e-08,-2.0382643482908032e-06,-1.8534519934631217e-09,1.716349746155868e-07,7.483811265800047e-08,0.0
1.216666730120778,2.592620562680281e-09,0.0,2.4414744004275235e-08,0.0,0.18249936401844025,1.0,-5.437059365970214e-06,-0.00011695131095238186,9.308545217092383e-07,6.946477914613773e-06,4.406693580324873e-06,0.0,-9.489458756257558e-08,-2.0411854406427686e-06,1.6246476260903242e-08,1.2123891102707987e-07,7.691131210316624e-08,0.0
1.2500000651925802,-2.9135516221856506e-09,0.0,-3.736845499702213e-09,0.0,0.18249937891960144,1.0,5.633807538192514e-07,-0.00010444797985376606,-1.3875687490761719e-07,1.0383993093481026e-05,4.969096299469801e-06,0.0,9.832849096513555e-09,-1.8229611455049233e-06,-2.4217643269158225e-09,1.8123486898559522e-07,8.672709127441418e-08,0.0
1.2833334002643824,-3.1235194430934143e-09,0.0,2.7283133974265183e-08,0.0,0.18249937891960144,1.0,-6.753158473507147e-06,-0.00011596911768176498,7.878794068780007e-08,9.715143805687044e-06,4.3761322042472445e-06,0.0,-1.1786485027165396e-07,-2.0240429341795724e-06,1.3751089758681169e-09,1.6956124671397112e-07,7.637791546667139e-08,0.0
1.3166667353361845,-8.538472151542464e-09,0.0,2.7161135562892014e-08,0.0,0.18249937891960144,1.0,-7.76395521826974e-06,-0.00011573920028510833,7.009714141890113e-07,8.00647045781855e-06,3.925176935997174e-06,0.0,-1.35506581536202e-07,-2.0200301186003002e-06,1.2234259139959144e-08,1.3973927095259147e-07,6.850726125649342e-08,0.0
1.3500000704079866,7.2714954058028525e-09,0.0,3.452613128729354e-08,0.0,0.18249939382076263,1.0,-8.814915519180502e-06,-0.00011557324626535078,6.550710866759393e-07,8.579735214092913e-06,4.284632332978966e-06,0.0,-1.5384929909484513e-07,-2.017133674548611e-06,1.1433147297112297e-08,1.4974462843522194e-07,7.478094144788898e-08,0.0
1.3833334054797888,5.989965856656454e-09,0.0,4.499243644318085e-08,0.0,0.18249936401844025,1.0,-9.374335709057218e-06,-0.0001154530592687338,4.476332613626568e-07,9.509873813154977e-06,3.864736433703698e-06,0.0,-1.6361302331032566e-07,-2.0150360157395615e-06,7.81267425221868e-09,1.6597860948874237e-07,6.745237548991308e-08,0.0
1.416666740551591,1.0062489508300132e-08,0.0,1.008619054942983e-08,0.0,0.18249937891960144,1.0,-2.873873486670072e-06,-0.00010378212696488529,2.2224986942932576e-08,1.1376851479588117e-05,4.405840726390625e-06,0.0,-5.0158554628162125e-08,-1.8113398202600378e-06,3.878991983669225e-10,1.985635168292011e-07,7.689642699397503e-08,0.0
1.450000075623393,-3.823210636966223e-09,0.0,6.446507772039922e-09,0.0,0.18249936401844025,1.0,-3.3747808294122197e-06,-9.981731996018229e-05,-8.538491772860538e-08,1.0117522157433944e-05,5.359271484326098e-06,0.0,-5.8901037006428326e-08,-1.742140883821836e-06,-1.490247945908642e-09,1.765840737907024e-07,9.353693290973409e-08,0.0
1.4833334106951952,-1.7284502717984651e-09,0.0,9.419996338522196e-09,0.0,0.18249937891960144,1.0,-4.0965511654286475e-06,-0.00010369344499359285,1.5137015122731567e-07,1.0361698091566937e-05,5.608357863056368e-06,0.0,-7.149830581314081e-08,-1.8097920278738257e-06,2.641907528158394e-09,1.8084574779545593e-07,9.788431034044687e-08,0.0
1.5166667457669973,-7.858901085455727e-09,0.0,2.5183954477370207e-08,0.0,0.18249939382076263,1.0,-4.644840929185632e-06,-0.00011377651317417252,2.8492128992354994e-07,8.905886992560987e-06,3.7856938227190453e-06,0.0,-8.106776744568205e-08,-1.985774766328015e-06,4.972814618195289e-09,1.5543705083072496e-07,6.607282167885785e-08,0.0
1.5500000808387995,-2.1447550402342586e-09,0.0,2.998172732304738e-08,0.0,0.18249939382076263,1.0,-5.141001360438904e-06,-0.00011375607516775589,4.747817966465842e-08,9.519715136375251e-06,4.351240218934599e-06,0.0,-8.972740058916662e-08,-1.985418055823501e-06,8.286505580017066e-10,1.6615037298168915e-07,7.594346836560766e-08,0.0
1.5833334159106016,-5.619703369319495e-09,0.0,2.9922027522388817e-08,0.0,0.18249939382076263,1.0,-5.632648542633812e-06,-0.00011301805686762818,2.9283413004625245e-07,8.801217298635187e-06,4.1925169916248854e-06,0.0,-9.830826267662021e-08,-1.972537206546301e-06,5.11091973152036e-09,1.5361022004466504e-07,7.317322544966179e-08,0.0
1.6166667509824038,-6.7159300343178074e-09,0.0,2.8312090449844618e-08,0.0,0.18249939382076263,1.0,-6.3894857843985846e-06,-0.0001128990143911348,7.644378105122839e-07,7.7365900185907e-06,4.4066422858813796e-06,0.0,-1.1151756444712783e-07,-1.9704595233817635e-06,1.3341956720175876e-08,1.3502896870133703e-07,7.691041684623931e-08,0.0
1.650000086054206,2.7884328179794693e-09,0.0,2.7091166643344877e-08,0.0,0.18249939382076263,1.0,-7.138813472386447e-06,-0.00011267103115170657,8.668033985521525e-07,7.653832268005363e-06,4.278603829693481e-06,0.0,-1.2459579977887279e-07,-1.9664804652143784e-06,1.512857327221171e-08,1.3358457347207865e-07,7.467572421658997e-08,0.0
1.683333421126008,3.5137985854305498e-09,0.0,3.342595533695203e-08,0.0,0.18249937891960144,1.0,-7.685320931372999e-06,-0.00011201766516118341,1.926989882009233e-07,9.419692260043972e-06,4.272558272431231e-06,0.0,-1.34134154324896e-07,-1.955077077459195e-06,3.363231809367816e-09,1.6440464446239322e-07,7.457020933724585e-08,0.0
1.7166667561978102,1.7294212728558023e-09,0.0,3.624392164169876e-08,0.0,0.18249939382076263,1.0,-8.256629546008174e-06,-0.00011195276914912121,8.564794782389826e-07,7.5757865141877385e-06,3.803664873395271e-06,0.0,-1.4410537069528726e-07,-1.953944428377296e-06,1.494838687103337e-08,1.3222241810076014e-07,6.638647568320075e-08,0.0
1.7500000912696123,2.810458310520403e-09,0.0,3.707383555706656e-08,0.0,0.18249939382076263,1.0,-8.627694926019873e-06,-0.00011164627000122889,1.0335276315383865e-06,7.5410759622136416e-06,4.409841736033275e-06,0.0,-1.5058168331665539e-07,-1.9485950090920177e-06,1.803846008068363e-08,1.3161660468362753e-07,7.696625778564332e-08,0.0
1.7833334263414145,4.220416904843205e-09,0.0,3.5347067495195006e-08,0.0,0.18249937891960144,1.0,-8.62503651608578e-06,-0.00011094756265834489,4.278177789094517e-07,8.61478000914324e-06,3.986300189602455e-06,0.0,-1.5053528531043773e-07,-1.936400265450831e-06,7.466828840539088e-09,1.5035627549453676e-07,6.957406328143706e-08,0.0
1.8166667614132166,1.9332707656971593e-10,0.0,3.4436272500215637e-08,0.0,0.18249937891960144,1.0,-8.946106218774682e-06,-0.00011092091941707083,8.957119783596363e-07,7.49637739251726e-06,3.860808186363677e-06,0.0,-1.5613900875075836e-07,-1.9359352531671952e-06,1.563312317192785e-08,1.3083646747149353e-07,6.7383814639997e-08,0.0
1.8500000964850187,7.305143157054772e-10,0.0,3.6929137081642693e-08,0.0,0.18249936401844025,1.0,-6.488092159343153e-06,0.00020392441559831807,3.95137996513588e-07,-3.5611542059277234e-05,2.776756525619978e-06,0.0,-1.132385703533666e-07,3.5591524773959325e-06,6.8964590388959855e-09,-6.215386606468294e-07,4.8463543898306895e-08,0.0
1.8833334315568209,-1.772193947147116e-09,0.0,-3.986700747304894e-09,0.0,0.18249939382076263,1.0,1.151918622623607e-07,-9.825617048928949e-05,2.0476016167431913e-07,6.123630747289129e-06,4.805324094699651e-06,0.0,2.0104772679819985e-09,-1.7148936854389894e-06,3.573738998132774e-09,1.0687751871655612e-07,8.38687270779247e-08,0.0
1.916666766628623,-3.897429934340835e-09,0.0,1.7355281656250554e-08,0.0,0.18249937891960144,1.0,-3.785448754658222e-06,-0.00010879784852722477,-3.7696203609373625e-08,9.166368442086572e-06,3.683554978250129e-06,0.0,-6.606854443430501e-08,-1.8988806758861358e-06,-6.579228684857401e-10,1.5998330976531382e-07,6.429016254869286e-08,0.0
1.9500001017004251,4.930017727389213e-09,0.0,2.4973413559337132e-08,0.0,0.18249936401844025,1.0,-3.6400242185456026e-06,-0.00010961509032113719,2.6317235639255987e-07,8.440301954566745e-06,3.3770948359787786e-06,0.0,-6.353040746595441e-08,-1.9131442359748125e-06,4.5932241192821166e-09,1.4731105896970255e-07,5.8941424039927546e-08,0.0
1.9833334367722273,2.536914456285899e-09,0.0,-3.66274335306116e-08,0.0,0.18249937891960144,1.0,6.072154164715601e-06,0.00026642160300801855,-6.262218858703399e-07,-8.756107817673953e-06,4.4447731257319195e-06,0.0,1.0597908286297332e-07,4.649934170931152e-06,-1.0929633756485588e-08,-1.5282291107802583e-07,7.75759255481819e-08,0.0
2.0166667718440294,-5.457049923052182e-09,0.0,1.987107545176059e-08,0.0,0.18249936401844025,1.0,-1.0840065206489427e-06,0.00019920609774275777,-6.253418610116823e-08,-3.427576627338712e-05,3.0617055467176434e-06,0.0,-1.8919482898411948e-08,3.476802295660767e-06,-1.0914274425202615e-09,-5.982249751146322e-07,5.3436842516795944e-08,0.0
2.0500001069158316,6.254145645812059e-09,0.0,1.2636197865845133e-08,0.0,0.18249936401844025,1.0,-3.0412697743096196e-06,-0.00012406083745285256,5.252927467076619e-07,3.3450431646910225e-05,4.5785461553209155e-06,0.0,-5.308017100308772e-08,-2.165270086333773e-06,9.168087966893303e-09,5.838201684518927e-07,7.991070536487766e-08,0.0
2.0833334419876337,5.8399329816438694e-09,0.0,9.267473899399192e-09,0.0,0.18249939382076263,1.0,-3.0822402139016166e-06,-9.761320223930252e-05,2.952126105386066e-07,7.482999431357692e-06,4.279726687888851e-06,0.0,-5.3795240069957507e-08,-1.7036717724909307e-06,5.1524320473063955e-09,1.3060297800205513e-07,7.469532178913218e-08,0.0
2.116666777059436,1.089737544646141e-08,0.0,3.043372487354645e-08,0.0,0.18249937891960144,1.0,-7.12466396502058e-06,-0.0001065875846712098,-2.4689436055225484e-07,1.0046150030113889e-05,4.714973965785827e-06,0.0,-1.2434884428780323e-07,-1.8603042942608488e-06,-4.309119496242852e-09,1.7533839517481485e-07,8.229181984877716e-08,0.0
2.150000112131238,-6.075180358777743e-09,0.0,2.9658458799985965e-08,0.0,0.18249936401844025,1.0,-6.919795101647419e-06,-0.00010748942088271956,3.8535886870986896e-07,8.30660156439033e-06,4.019545289840672e-06,0.0,-1.2077320808712314e-07,-1.8760443054654059e-06,6.725781060747766e-09,1.4497754694992303e-07,7.015429974074951e-08,0.0
2.18333344720304,-7.411375069210635e-09,0.0,-1.7344063962809741e-09,0.0,0.18249937891960144,1.0,-4.0616161872376316e-07,-9.787046107611912e-05,-6.77582811453986e-08,9.288974169689479e-06,3.968578680247067e-06,0.0,-7.0888575419595165e-09,-1.7081617862232312e-06,-1.1826051014792001e-09,1.6212318339378787e-07,6.926476459476256e-08,0.0
2.2166667822748423,-7.079362429607272e-09,0.0,-6.068368474387853e-09,0.0,0.18249939382076263,1.0,-8.275634302738742e-07,-9.475859651847812e-05,5.9569766200303554e-08,7.0699019906095195e-06,5.264012392894055e-06,0.0,-1.4443706627377623e-08,-1.653849503816279e-06,1.039688554838529e-09,1.2339306752943734e-07,9.187434812178662e-08,0.0
2.2500001173466444,7.056299988761339e-09,0.0,1.96598666235559e-08,0.0,0.18249937891960144,1.0,-4.544970910942494e-06,-0.00010522453591204415,-2.492561139637832e-10,8.871127280728399e-06,3.92572943312612e-06,0.0,-7.932470680331249e-08,-1.8365146055481847e-06,-4.350339869394231e-12,1.5483037941220188e-07,6.851690415050133e-08,0.0
2.2833334524184465,-5.45385603345494e-09,0.0,2.7795939772090605e-08,0.0,0.18249937891960144,1.0,-4.6802188942895995e-06,-0.00010620445661822987,-2.556386068140402e-07,9.607047304374627e-06,4.419058410200879e-06,0.0,-8.168522941940195e-08,-1.8536174482795936e-06,-4.461735384116213e-09,1.6767460685618307e-07,7.712711909595152e-08,0.0
2.3166667874902487,4.96379159997673e-09,0.0,2.4026602929438923e-08,0.0,0.18249936401844025,1.0,-4.869830812727699e-06,-0.00010586900394109817,6.388648862247147e-07,7.054835391365145e-06,3.5144707598787474e-06,0.0,-8.499458169716971e-08,-1.8477626945790157e-06,1.1150295740000236e-08,1.2313010576554451e-07,6.133908622495117e-08,0.0
2.350000122562051,2.55368337587214e-10,0.0,-6.556501563892425e-09,0.0,0.18249937891960144,1.0,2.1747218142705574e-06,-9.495767745428031e-05,-1.367019234235718e-07,8.535035153528746e-06,4.897080397349339e-06,0.0,3.795605597396583e-08,-1.6573241216239786e-06,-2.385898657550487e-09,1.4896446520253635e-07,8.547017666861816e-08,0.0
2.383333457633853,-9.646077270275555e-10,0.0,1.9999770728418298e-08,0.0,0.18249937891960144,1.0,-2.9257508232079165e-06,-0.00010446140399282968,1.4279144276265712e-07,8.11614422471871e-06,3.792827636661719e-06,0.0,-5.1063984957912665e-08,-1.823195440930829e-06,2.4921808198813946e-09,1.4165343928806406e-07,6.619733022038218e-08,0.0
2.416666792705655,-4.125725594494867e-10,0.0,3.162032413683846e-08,0.0,0.18249939382076263,1.0,-8.817244204895786e-06,-0.00010444199271746225,3.425886092853873e-07,8.708215076102873e-06,4.580374478399313e-06,0.0,-1.5388994232782098e-07,-1.822856650263656e-06,5.979299211858426e-09,1.5198702504980372e-07,7.99426156223859e-08,0.0
2.4500001277774572,-3.3059439630278575e-09,0.0,3.2782065062519905e-08,0.0,0.18249936401844025,1.0,-6.40183103810411e-06,0.00019300507577208443,2.920844910546417e-07,-3.292255576146417e-05,3.778723670532504e-06,0.0,-1.1173302977128328e-07,3.36857404528401e-06,5.097836062915422e-09,-5.746069962089785e-07,6.595116957383762e-08,0.0
2.4833334628492594,-5.841037875597976e-09,0.0,-8.112094995738062e-09,0.0,0.18249939382076263,1.0,3.5070861379411625e-07,-9.316781649054188e-05,-1.587365363332773e-07,8.479888700877887e-06,4.524323054789323e-06,0.0,6.121020025812531e-09,-1.6260851546538242e-06,-2.7704752022272957e-09,1.4800197803298368e-07,7.896433372996149e-08,0.0
2.5166667979210615,-1.273374117261028e-08,0.0,1.5934201513800872e-08,0.0,0.18249939382076263,1.0,-2.640298057908429e-06,-0.00010241419271515996,-7.736636223710424e-07,1.0500434421312948e-05,4.1427212419743365e-06,0.0,-4.608189434451399e-08,-1.7874648636515324e-06,-1.3502977513280748e-08,1.832671535416564e-07,7.230412566476088e-08,0.0
2.5500001329928637,-4.485321891678495e-09,0.0,2.8940842611291373e-08,0.0,0.18249939382076263,1.0,-5.458249521984866e-06,-0.00010231579913278485,2.2897705822242357e-07,7.942213480421188e-06,3.6491561222184684e-06,0.0,-9.526442555404252e-08,-1.7857475716762544e-06,3.996403577512046e-09,1.3861777512962792e-07,6.368978925202087e-08,0.0
2.583333468064666,-8.303622678340616e-09,0.0,3.089933287014901e-08,0.0,0.18249937891960144,1.0,-5.416253972411179e-06,-0.00010311209754707147,6.84675277592306e-07,6.90228106828943e-06,3.6385667365625724e-06,0.0,-9.453146494279719e-08,-1.799645600833966e-06,1.1949837900991893e-08,1.2046753053972212e-07,6.350496960656203e-08,0.0
2.616666803136468,-7.072627816739896e-09,0.0,2.2638420915654933e-08,0.0,0.18249937891960144,1.0,-5.579691532517223e-06,-0.00010283332459756711,6.13289715627505e-07,7.5736288284089905e-06,4.120153403154934e-06,0.0,-9.73839884880738e-08,-1.794780094999619e-06,1.0703924806319683e-08,1.3218475937969754e-07,7.191024257230292e-08,0.0
2.65000013820827,4.432008982035995e-09,0.0,2.9522301048245936e-08,0.0,0.18249939382076263,1.0,-5.472516298294856e-06,-0.00010234377625887778,7.821501992683579e-07,6.776994173509633e-06,4.225109053931111e-06,0.0,-9.551342777429737e-08,-1.7862358646418219e-06,1.3651096222362588e-08,1.1828086171621498e-07,7.374206424692055e-08,0.0
2.683333473280072,5.485232268398477e-09,0.0,2.723904657386811e-08,0.0,0.18249937891960144,1.0,-5.65720790977704e-06,-0.00010181513811994898,6.190320649449697e-07,7.459005195769511e-06,4.0188210320829e-06,0.0,-9.873690449547566e-08,-1.777009388565899e-06,1.0804147708709093e-08,1.301841995895422e-07,7.014165905824328e-08,0.0
2.7166668083518744,6.178169531523281e-09,0.0,2.8033122490001006e-08,0.0,0.18249937891960144,1.0,-5.65301222532967e-06,-0.00010152823559777756,5.418798611355711e-07,7.423435135460227e-06,4.271554730009955e-06,0.0,-9.866367598749433e-08,-1.7720019949217315e-06,9.457587727065375e-09,1.2956338492201222e-07,7.455269421781116e-08,0.0
2.7500001434236765,2.3520567715706875e-09,0.0,2.1676552108829128e-08,0.0,0.18249937891960144,1.0,-5.561595850098577e-06,-0.00010135283422487527,7.056437792269093e-07,6.7343129053338874e-06,4.4925838333056155e-06,0.0,-9.706815924947316e-08,-1.7689406634520684e-06,1.2315807293725533e-08,1.1753593305762154e-07,7.841037981305107e-08,0.0
2.7833334784954786,-1.9037633691709743e-09,0.0,2.2583112269103367e-08,0.0,0.18249936401844025,1.0,-3.085593383308694e-06,0.00018669844771821903,3.480079973357269e-07,-3.345363994120309e-05,3.7417755045225914e-06,0.0,-5.3853763916488154e-08,3.2585026210454165e-06,6.073885376780088e-09,-5.838761637506761e-07,6.53063024243912e-08,0.0
2.8166668135672808,-3.356572353396814e-09,0.0,8.51828385606268e-09,0.0,0.18249939382076263,1.0,-3.082612724479858e-06,-9.067839699301792e-05,1.5868458665199792e-07,7.1021339928794826e-06,5.063282239776481e-06,0.0,-5.380174160604633e-08,-1.5826365879586881e-06,2.769568509243609e-09,1.2395562209355848e-07,8.837094604185259e-08,0.0
2.850000148639083,-6.257255158459429e-09,0.0,-1.358805068463198e-09,0.0,0.18249937891960144,1.0,-8.251628968466665e-07,-8.862540838581465e-05,1.5272151618255109e-07,5.549132778832205e-06,4.619580107107613e-06,0.0,-1.4401809415268667e-08,-1.5468051772570586e-06,2.665493296023318e-09,9.685063762096428e-08,8.062688292866014e-08,0.0
2.883333483710885,9.002110168410127e-09,0.0,-3.600466813580283e-09,0.0,0.18249937891960144,1.0,-6.35807853035438e-07,-8.529235331973634e-05,-2.113259054611755e-07,8.14017436197538e-06,5.9005833662186276e-06,0.0,-1.1096940445504616e-08,-1.488632392203715e-06,-3.6883328450557784e-09,1.4207284430289908e-07,1.029846075289254e-07,0.0
2.916666818782687,-1.2512650471308007e-08,0.0,-2.124554088211994e-09,0.0,0.18249937891960144,1.0,-4.4299904534430377e-07,-9.063435834993768e-05,2.664292806257119e-07,5.945210408493711e-06,4.214094702169942e-06,0.0,-7.731791924449757e-09,-1.5818679686388275e-06,4.65006817063861e-09,1.037634963520523e-07,7.354982754371532e-08,0.0
2.9500001538544893,2.9960920411298275e-09,0.0,-3.0146385388007957e-09,0.0,0.18249937891960144,1.0,-3.467964796723087e-07,-8.803993627948478e-05,1.647959269502176e-07,5.787620934091823e-06,5.035752583556746e-06,0.0,-6.052740404607372e-09,-1.5365867613230162e-06,2.8762315191573547e-09,1.0101304115725203e-07,8.789046289887609e-08,0.0
2.9833334889262915,-2.576497459827465e-09,0.0,-7.553539127513886e-09,0.0,0.18249939382076263,1.0,-7.62006025312808e-08,-8.877400104198909e-05,-4.66295364154543e-08,7.075401225340948e-06,4.916931132297002e-06,0.0,-1.3299514061743753e-09,-1.5493986083515864e-06,-8.138389391282721e-10,1.234890472818408e-07,8.581663735239559e-08,0.0
3.0166668239980936,-4.002329134777938e-09,0.0,1.163167517859165e-08,0.0,0.18249939382076263,1.0,-2.4575662511305655e-06,-9.765920670888667e-05,1.9359145524057675e-07,7.5066440386916356e-06,4.028130058600057e-06,0.0,-4.289262266812218e-08,-1.7044747019558078e-06,3.3788082976752954e-09,1.3101565425037365e-07,7.030413222112312e-08,0.0
3.0500001590698957,-2.4119328756455616e-09,0.0,1.9384660987498137e-08,0.0,0.18249939382076263,1.0,-5.2607721923981e-06,-9.729636685832659e-05,1.2527191945948163e-07,8.179084415816043e-06,4.101079055619339e-06,0.0,-9.181779595470745e-08,-1.6981419519060903e-06,2.18640745486111e-09,1.4275195285454691e-07,7.157733240513712e-08,0.0
3.083333494141698,-5.26640331344197e-09,0.0,2.576392965636387e-08,0.0,0.18249936401844025,1.0,-2.515975682046691e-06,0.00017989450271379967,4.0343618660483843e-07,-3.343813259764921e-05,3.488325702689535e-06,0.0,-4.391205955182474e-08,3.1397513785936786e-06,7.041289777944674e-09,-5.836055095474231e-07,6.08827688938772e-08,0.0
3.1166668292135,-3.4551912442282173e-09,0.0,5.8534093128059794e-09,0.0,0.18249939382076263,1.0,-2.317552829292724e-06,-8.750835766839526e-05,4.3165408427018633e-07,5.0373796796554925e-06,4.604383460098217e-06,0.0,-4.044892746006812e-08,-1.5273089643263255e-06,7.533785000195816e-09,8.791886108304555e-08,8.036165140308284e-08,0.0
3.150000164285302,-4.022300714723315e-09,0.0,2.6393008667469076e-08,0.0,0.18249939382076263,1.0,-4.823007817025425e-06,-9.603591767254972e-05,-9.181194560749227e-07,1.0988616615164675e-05,5.2493279382245774e-06,0.0,-8.417736625651788e-08,-1.6761429635602022e-06,-1.6024207435126855e-08,1.9178754017397823e-07,9.161805603894438e-08,0.0
3.1833334993571043,4.444330237163285e-09,0.0,2.2891054385354437e-08,0.0,0.18249937891960144,1.0,-4.20486997148301e-06,-9.669997062160082e-05,1.0153124628031062e-07,8.104993989347713e-06,4.046638546384125e-06,0.0,-7.33888256206186e-08,-1.6877328739287222e-06,1.7720545412446658e-09,1.4145883096846781e-07,7.062716627252027e-08,0.0
3.2166668344289064,2.3959296768794047e-09,0.0,2.1762577517847603e-08,0.0,0.18249937891960144,1.0,-3.7373591508763295e-06,-9.637611578178755e-05,7.320190766165506e-07,6.3113771800870115e-06,3.58440184793553e-06,0.0,-6.522922251233147e-08,-1.6820805406754614e-06,1.277614307436744e-08,1.1015431212775344e-07,6.255961396104411e-08,0.0
3.2500001695007086,-2.6587982926429277e-09,0.0,1.1047765369198714e-08,0.0,0.18249939382076263,1.0,-3.3573005085996025e-06,-9.609645997482549e-05,-2.688676875544521e-07,8.828173754808126e-06,4.99082097228104e-06,0.0,-5.8595947853943264e-08,-1.677199626071652e-06,-4.69262640004857e-09,1.5408069895955239e-07,8.71062583438888e-08,0.0
3.2833335045725107,3.464436792999237e-10,0.0,9.128575673145178e-11,0.0,0.18249939382076263,1.0,-7.561105681260753e-07,-8.490102034891182e-05,-1.7534825710513552e-08,8.230730689082085e-06,5.307283814436833e-06,0.0,-1.3196618922924905e-08,-1.4818023433912162e-06,-3.0604044241181553e-10,1.4365335036942407e-07,9.26295768997265e-08,0.0
3.316666839644313,-2.6319459944801338e-09,0.0,-9.603288830817291e-09,0.0,0.18249939382076263,1.0,1.7996329437171896e-06,-8.52928556081594e-05,-1.8589757339663443e-07,6.797236746669349e-06,4.336061084538971e-06,0.0,3.140952019522276e-08,-1.488641158790492e-06,-3.2445247272390896e-09,1.1863416126692785e-07,7.567854249280123e-08,0.0
3.350000174716115,-5.184856988194042e-09,0.0,3.2676915395768447e-08,0.0,0.18249936401844025,1.0,-7.7202046840589e-06,-9.461080488419458e-05,-7.010522134117806e-07,1.0747217182481938e-05,5.299473029920917e-06,0.0,-1.347429906647164e-07,-1.6512700531911278e-06,-1.2235669352429521e-08,1.8757432526121808e-07,9.249325299275997e-08,0.0
3.383333509787917,-1.0342281697717226e-08,0.0,-4.128156927407645e-09,0.0,0.18249939382076263,1.0,1.6515698689784828e-07,-8.479775883679513e-05,-1.4124008288586297e-07,7.814514867925392e-06,5.536637530641271e-06,0.0,2.8825332040405884e-09,-1.4800000900141917e-06,-2.4651044821480034e-09,1.3638901389134792e-07,9.663255439917861e-08,0.0
3.4166668448597193,-9.001490663962386e-10,0.0,-8.586367172824794e-09,0.0,0.18249937891960144,1.0,2.861378651434949e-06,-8.494471407277284e-05,2.9303787954738887e-07,2.7819720162239876e-06,4.357495081773995e-06,0.0,4.994047861381503e-08,-1.4825649427350483e-06,5.114475831164486e-09,4.855457138145369e-08,7.605263631641576e-08,0.0
3.4500001799315214,-7.965219595007511e-09,0.0,3.7328323543306396e-08,0.0,0.18249937891960144,1.0,-8.56796038151088e-06,-9.39091964230625e-05,4.448959932297226e-08,8.585105086207758e-06,4.089524026552912e-06,0.0,-1.4953911883779436e-07,-1.6390246754845225e-06,7.76489991078906e-10,1.49838350384037e-07,7.137565910276432e-08,0.0
3.4833335150033236,4.3039745101225435e-09,0.0,3.488666777684557e-08,0.0,0.18249937891960144,1.0,-8.302938422877947e-06,-9.353047139274016e-05,6.869457969424298e-07,6.735671104893488e-06,4.624337150459444e-06,0.0,-1.4491361306956544e-07,-1.6324146767456822e-06,1.1989465939381795e-08,1.175596381118357e-07,8.070990899780969e-08,0.0
3.5166668500751257,4.2567005476001896e-10,0.0,2.940579690857703e-08,0.0,0.18249937891960144,1.0,-5.449345187244599e-06,0.00017151571047124096,3.10118001671869e-07,-3.1448684266091706e-05,3.7900287374402776e-06,0.0,-9.510901559512515e-08,2.9935138666204698e-06,5.412580198879393e-09,-5.488830858634368e-07,6.614848021353653e-08,0.0
3.550000185146928,-3.1343709849807055e-09,0.0,2.169700863419166e-08,0.0,0.18249937891960144,1.0,-4.7595448442154246e-06,-9.27330078449949e-05,7.283274948721904e-07,6.074542315930496e-06,4.016183360228576e-06,0.0,-8.306972842787975e-08,-1.6184963121728924e-06,1.271171281832184e-08,1.0602076396470874e-07,7.009562299979813e-08,0.0
3.58333352021873,-9.092880892680455e-10,0.0,1.9680202356653353e-08,0.0,0.18249937891960144,1.0,-3.983865669442245e-06,-9.234973718926054e-05,7.635084322140395e-07,6.01902786071299e-06,4.290292013937347e-06,0.0,-6.953157288893523e-08,-1.61180697730405e-06,1.3325736008874928e-08,1.0505185393871233e-07,7.487972151522515e-08,0.0
3.616666855290532,-1.062062082723969e-08,0.0,1.750098554964552e-08,0.0,0.18249937891960144,1.0,-1.3452136201310603e-06,0.00016958891817991502,-5.5299803696167696e-08,-2.9571069123405315e-05,4.708393001781962e-06,0.0,-2.3478406813959276e-08,2.9598849971347866e-06,-9.651636502046562e-10,-5.161125195382561e-07,8.217696035895448e-08,0.0
3.6500001903623343,4.87046403208069e-09,0.0,-2.9167368520433e-09,0.0,0.18249939382076263,1.0,-9.620688406502072e-07,-8.162336400342025e-05,-9.563263647318909e-08,7.777503908624255e-06,5.518107060295902e-06,0.0,-1.679126890019078e-08,-1.4245964484135034e-06,-1.6691043788199675e-09,1.3574305079222144e-07,9.630913667970874e-08,0.0
3.6833335254341364,3.2604210442599424e-09,0.0,-7.121059297787724e-09,0.0,0.18249939382076263,1.0,1.9156329199322534e-06,-8.201563256988483e-05,4.532706158044877e-09,6.329735586637624e-06,4.335584360554126e-06,0.0,3.3434101712410734e-08,-1.4314428264503885e-06,7.911064648330556e-11,1.1047472676748133e-07,7.567022208964246e-08,0.0
3.7166668605059385,6.2402301104214075e-09,0.0,3.016210925466112e-08,0.0,0.18249936401844025,1.0,-7.3204705017867616e-06,-9.054743395008802e-05,4.330149492292145e-08,7.956627239786742e-06,5.106167721048622e-06,0.0,-1.2776631305130042e-07,-1.5803508516611309e-06,7.557536574405876e-10,1.38869342688147e-07,8.911943889135381e-08,0.0
3.7500001955777407,6.072492286790521e-09,0.0,-9.086084773457515e-09,0.0,0.18249939382076263,1.0,1.2852105388317602e-06,-8.239869504603972e-05,-1.4424154708643347e-07,8.777687098163924e-06,5.2659575680608156e-06,0.0,2.2431155483944652e-08,-1.4381285279001337e-06,-2.517489914828698e-09,1.5319954057278718e-07,9.190829783297462e-08,0.0
3.783333530649543,6.472137936697209e-09,0.0,3.536832338113527e-08,0.0,0.18249936401844025,1.0,-8.201437512704507e-06,-8.982133731334634e-05,6.285840158610584e-07,6.404892583953224e-06,4.296425936918279e-06,0.0,-1.4314208799326791e-07,-1.5676780746623314e-06,1.0970860702183728e-08,1.1178646382655109e-07,7.498677866730616e-08,0.0
3.816666865721345,5.514074530310609e-09,0.0,-5.068203190461418e-09,0.0,0.18249937891960144,1.0,2.2418015441016373e-07,-8.096240304468247e-05,1.1142801445014646e-07,6.3558993321666725e-06,4.591397849503825e-06,0.0,3.9126818120866435e-09,-1.4130605034563907e-06,1.9447857311148745e-09,1.1093137027161718e-07,8.013500974282885e-08,0.0
3.850000200793147,5.684006154638155e-09,0.0,1.953848816071968e-08,0.0,0.18249937891960144,1.0,-3.660792618750487e-06,-8.927037238033504e-05,-8.002598788742462e-07,9.672775566606713e-06,4.572783538633624e-06,0.0,-6.38928844299015e-08,-1.558061922518254e-06,-1.3967169757966609e-08,1.6882178144374722e-07,7.981012873015406e-08,0.0
3.8833335358649492,-2.6202009451026242e-09,0.0,1.8241637533833455e-08,0.0,0.18249936401844025,1.0,-2.1685899095369084e-06,-8.92786676874344e-05,1.5393647020239624e-07,6.8227165017508426e-06,3.502628739370071e-06,0.0,-3.784903404694503e-08,-1.5582067029396021e-06,2.6866982439299564e-09,1.1907886688570166e-07,6.113240397698608e-08,0.0
3.9166668709367514,-1.036655472574921e-08,0.0,7.520072564659586e-09,0.0,0.18249937891960144,1.0,-1.3170728709233448e-06,-7.947852519298228e-05,3.479162707578145e-07,4.567171026750497e-06,4.392396289310705e-06,0.0,-2.2987258086306654e-08,-1.3871619492468025e-06,6.072284445983931e-09,7.971217191848619e-08,7.666177730085323e-08,0.0
3.9500002060085535,4.209159243373506e-09,0.0,1.560050044702166e-08,0.0,0.18249937891960144,1.0,-5.209983444427496e-06,-8.81691497761982e-05,7.402832475626328e-07,5.699553620856285e-06,4.157201721622434e-06,0.0,-9.093136507965482e-08,-1.5388419622786801e-06,1.292038006732423e-08,9.947597657790672e-08,7.255685771188822e-08,0.0
3.9833335410803556,4.405444897770394e-09,0.0,2.544894606160142e-08,0.0,0.18249936401844025,1.0,-4.314661686120603e-06,-8.824299266506541e-05,5.429156426650835e-07,6.315414433459192e-06,3.962669036299978e-06,0.0,-7.530505253245464e-08,-1.5401307638185972e-06,9.47566552508671e-09,1.1022477549183523e-07,6.916162185026531e-08,0.0
4.016666876152158,1.0431898012086549e-08,0.0,-2.1912450520744642e-08,0.0,0.18249937891960144,1.0,3.293162227097923e-06,0.00016320707343885137,8.835896219581808e-07,2.0319135647453594e-06,4.22546696724518e-06,0.0,5.747652366516798e-08,2.8485007940521404e-06,1.542154813962224e-08,3.5463581820741496e-08,7.374831101268778e-08,0.0
4.05000021122396,-2.9660687239640993e-09,0.0,3.061049369534885e-08,0.0,0.18249937891960144,1.0,-6.883985622479108e-06,-8.753977356724743e-05,3.084341900940868e-07,7.31780739391258e-06,3.4156547512124185e-06,0.0,-1.201482147722118e-07,-1.5278572751987693e-06,5.383192142863894e-09,1.2771983305056018e-07,5.961442152004448e-08,0.0
4.083333546295762,-4.595283709107889e-09,0.0,2.0268000611167736e-08,0.0,0.18249936401844025,1.0,-6.262474088693219e-06,-8.705981402140792e-05,3.453887260934373e-07,6.981769735432914e-06,4.721180745853899e-06,0.0,-1.0930079216852806e-07,-1.5194804008474932e-06,6.028170469599333e-09,1.2185486949939776e-07,8.240014859691216e-08,0.0
4.116666881367564,4.505074535643416e-09,0.0,-6.653015915958349e-09,0.0,0.18249937891960144,1.0,1.952981483257181e-06,-7.822914461773968e-05,-8.407262236737213e-08,6.160478667000206e-06,4.263747180565846e-06,0.0,3.408595711332032e-08,-1.3653561445983583e-06,-1.4673440710964734e-09,1.0752063623802494e-07,7.441642677349919e-08,0.0
4.150000216439366,6.402003815964008e-09,0.0,3.762094991088816e-08,0.0,0.18249937891960144,1.0,-8.325318983389188e-06,-8.640601272693112e-05,-3.1558012675606415e-07,8.677051494767784e-06,4.618102725318738e-06,0.0,-1.4530422753892844e-07,-1.5080694156050722e-06,-5.507912265754372e-09,1.5144311794879336e-07,8.060109775213527e-08,0.0
4.1833335515111685,5.340907716089305e-09,0.0,2.627571049629296e-08,0.0,0.18249937891960144,1.0,-5.072967816353034e-06,0.00015820460701357618,1.5204313877300818e-07,-2.751218766280691e-05,4.126251541943709e-06,0.0,-8.853999124306748e-08,2.7611912842106178e-06,2.653653376655644e-09,-4.801782591425441e-07,7.201667517241062e-08,0.0
4.216666886582971,2.816793465143519e-09,0.0,2.190946091218393e-08,0.0,0.18249937891960144,1.0,-3.7645960969166723e-06,-8.576365449101845e-05,7.500090609824188e-07,5.424139953219298e-06,3.6727494122238493e-06,0.0,-6.570459689892348e-08,-1.4968581494110936e-06,1.3090127533934146e-08,9.466910127264795e-08,6.410156984399264e-08,0.0
4.250000221654773,3.2963685114850705e-09,0.0,7.414573843789185e-09,0.0,0.18249937891960144,1.0,-2.586819702785695e-06,-8.528821748741332e-05,5.764611856149684e-07,5.461538470798745e-06,4.52020022917278e-06,0.0,-4.514852096907151e-08,-1.4885602083123679e-06,1.0061145698931372e-08,9.532182853977427e-08,7.889237684846724e-08,0.0
4.283333556726575,1.1057854631957298e-09,0.0,-4.727412350469251e-10,0.0,0.18249937891960144,1.0,-1.0819538649053288e-06,-7.665873426257014e-05,1.1225898362456608e-08,6.015429060099042e-06,4.2331230711978225e-06,0.0,-1.8883657297275916e-08,-1.3379473132932362e-06,1.959288879191076e-10,1.0498904301887614e-07,7.388193523453634e-08,0.0
4.316666891798377,7.858964035101224e-10,0.0,-9.396305067355115e-09,0.0,0.18249939382076263,1.0,6.502772684711237e-07,-7.40139876292957e-05,-2.229101993878793e-07,8.108202827591586e-06,5.675052826651176e-06,0.0,1.1349479385696221e-08,-1.2917877766615621e-06,-3.890516915595542e-09,1.415148357609873e-07,9.904835704967402e-08,0.0
4.350000226870179,1.238766755840004e-09,0.0,3.39914585367751e-08,0.0,0.18249936401844025,1.0,-7.53445698725219e-06,-8.40984921153535e-05,4.1936313085236564e-07,6.920369619306857e-06,3.852827224689255e-06,0.0,-1.3150108177744314e-07,-1.4677955833754096e-06,7.3192673948455945e-09,1.207832353118912e-07,6.724452058130285e-08,0.0
4.383333561941981,-1.0749383605457297e-09,0.0,-9.576630155549992e-09,0.0,0.18249937891960144,1.0,6.185763569471468e-07,-7.50676394471418e-05,-7.94387105914926e-08,7.1163340197995676e-06,4.725084551672289e-06,0.0,1.0796194103719411e-08,-1.3101774700526e-06,-1.3864670533604382e-09,1.242034593171858e-07,8.246828286180157e-08,0.0
4.4166668970137835,-4.528696972982971e-09,0.0,-1.0738625100259469e-08,0.0,0.18249939382076263,1.0,1.9918113248188307e-06,-7.520251237205654e-05,-4.080276023722536e-08,6.014711160230785e-06,4.386329117378815e-06,0.0,3.4763665696598846e-08,-1.3125314466641575e-06,-7.121425100414051e-10,1.0497651330247542e-07,7.655588517435715e-08,0.0
4.450000232085586,-8.321997313487373e-09,0.0,2.9197039452810714e-08,0.0,0.18249936401844025,1.0,-6.414042791843811e-06,-8.287916694032557e-05,-8.770072613789963e-07,9.83536845547825e-06,5.562964226920687e-06,0.0,-1.119461650814838e-07,-1.446514344418716e-06,-1.530666427496199e-08,1.716595626948848e-07,9.709204193042696e-08,0.0
4.483333567157388,-9.38420718910038e-09,0.0,-7.383512468095432e-09,0.0,0.18249937891960144,1.0,2.476156161354268e-06,-7.520542329890637e-05,-1.6394095683731552e-07,4.7171130310974e-06,4.29115063403616e-06,0.0,4.3217077809175945e-08,-1.3125822519219717e-06,-2.8613094756810655e-09,8.23291535813793e-08,7.489470726297324e-08,0.0
4.51666690222919,3.6879521658761405e-09,0.0,2.9402972501202385e-08,0.0,0.18249937891960144,1.0,-8.101534116072501e-06,-8.249940833454058e-05,2.441748036645493e-07,6.8637840261520125e-06,4.427088646956736e-06,0.0,-1.413984447881136e-07,-1.4398863063849846e-06,4.261654274357101e-09,1.197956304021452e-07,7.726727316705587e-08,0.0
4.550000237300992,-1.164349061610892e-09,0.0,2.512615893124348e-08,0.0,0.18249936401844025,1.0,-6.3596641086419435e-06,-8.210367975155426e-05,2.669447835428772e-07,6.866565419147674e-06,4.394810853830911e-06,0.0,-1.1099707801671228e-07,-1.4329795396676217e-06,4.65906539384678e-09,1.198441748677114e-07,7.670391940173265e-08,0.0
4.583333572372794,-6.397578022898642e-09,0.0,-7.170269711309629e-09,0.0,0.18249937891960144,1.0,2.1101979840528066e-06,-7.333982911011536e-05,1.1603132364379815e-08,3.0573434975073004e-06,4.2448661882902e-06,0.0,3.682990269066827e-08,-1.2800214908214958e-06,2.025128633031422e-10,5.336071039594144e-08,7.408689129224555e-08,0.0
4.616666907444596,-7.588376149669784e-09,0.0,3.534041681518829e-08,0.0,0.18249939382076263,1.0,-8.631854819204517e-06,-8.160744636782269e-05,1.8741665959541702e-07,7.498678414523056e-06,4.144760836136983e-06,0.0,-1.5065428714925867e-07,-1.4243186332631935e-06,3.2710377830294505e-09,1.308766278816555e-07,7.233972329830352e-08,0.0
4.650000242516398,5.585029327903612e-09,0.0,3.221207833803419e-08,0.0,0.18249936401844025,1.0,-7.3765662832649566e-06,-8.123587827700495e-05,1.1772703333051608e-06,3.92173831484021e-06,4.3835407390703e-06,0.0,-1.2874536913457418e-07,-1.4178335466830744e-06,2.0547243502226114e-08,6.844724599557567e-08,7.650721879208237e-08,0.0
4.683333577588201,-6.481122305501685e-10,0.0,-1.1469771798999773e-08,0.0,0.18249937891960144,1.0,1.3855241134845204e-06,-7.283280849217089e-05,-1.5591640023324286e-07,6.902443361983759e-06,5.198961753316538e-06,0.0,2.4181957646080446e-08,-1.2711723116628685e-06,-2.7212545419273427e-09,1.204703630990434e-07,9.073900028063082e-08,0.0
4.716666912660003,-4.09899580944284e-09,0.0,-1.130338578292367e-08,0.0,0.18249939382076263,1.0,2.6703605281877294e-06,-7.227781671975531e-05,-7.181865174049674e-08,5.783620238945615e-06,4.503662577501741e-06,0.0,4.6606583432170726e-08,-1.261485877912738e-06,-1.2534719372148243e-09,1.0094321585458215e-07,7.860374037625968e-08,0.0
4.750000247731805,-5.748102438474234e-09,0.0,2.065053372746206e-08,0.0,0.18249937891960144,1.0,-5.303840874534085e-06,-7.958136571523817e-05,6.303303631769394e-08,6.7003570039274175e-06,3.7569750001320513e-06,0.0,-9.256948626247525e-08,-1.3889568549646381e-06,1.1001340212729217e-09,1.1694329077759607e-07,6.55715836674187e-08,0.0
4.783333582803607,3.7656144868947194e-09,0.0,1.537791582961745e-08,0.0,0.18249936401844025,1.0,-3.7977772802958047e-06,-7.952537315950885e-05,4.5499857800031527e-07,5.6026040367240465e-06,3.9138230497533305e-06,0.0,-6.628371779859736e-08,-1.387979600510555e-06,7.941223277997738e-09,9.778388712635991e-08,6.830909855864146e-08,0.0
4.816666917875409,4.537105136037667e-10,0.0,1.939095994885065e-08,0.0,0.18249936401844025,1.0,-5.852059769435278e-06,-7.905913348341877e-05,9.974631734790894e-07,4.2186869549867365e-06,4.0913185242246585e-06,0.0,-1.0213771100014582e-07,-1.3798421830593513e-06,1.7409016544601493e-08,7.362997747545237e-08,7.140697899555567e-08,0.0
4.850000252947211,2.6498303551392155e-09,0.0,3.3045669312059545e-08,0.0,0.18249936401844025,1.0,-8.2551240565296e-06,-7.892700355483415e-05,6.124722741122053e-07,5.525985446788098e-06,4.009998923168085e-06,0.0,-1.4407909494703202e-07,-1.3775360807651246e-06,1.0689657760435212e-08,9.644664046374222e-08,6.998768421071022e-08,0.0
4.883333588019013,2.548043109840137e-09,0.0,-7.892771769490992e-09,0.0,0.18249937891960144,1.0,7.75527829040111e-07,-7.003943797664911e-05,2.222715621279391e-08,4.1880429640259005e-06,4.331942752740691e-06,0.0,1.3535514057593632e-08,-1.2224187989388824e-06,3.879370592683671e-10,7.309513893723439e-08,7.560666404323167e-08,0.0
4.9166669230908155,2.7594093676697184e-09,0.0,7.827612336086531e-09,0.0,0.18249937891960144,1.0,-1.3544278913928341e-06,-7.793168277693991e-05,-6.909659324418217e-07,8.030757036054501e-06,4.728286895387979e-06,0.0,-2.363922618564912e-08,-1.360164456077359e-06,-1.2059630540222491e-08,1.40163151706852e-07,8.252417430342091e-08,0.0
4.950000258162618,-3.3488227746403254e-09,0.0,1.9320305355563505e-08,0.0,0.18249939382076263,1.0,-4.042174962957332e-06,-7.75764494709283e-05,5.979681949969969e-07,4.798463194876505e-06,4.246033761329209e-06,0.0,-7.054926204528527e-08,-1.3539644652747119e-06,1.043651382490508e-08,8.37489817863613e-08,7.410726928603377e-08,0.0
4.98333359323442,-6.94389390432093e-09,0.0,6.866273327688077e-09,0.0,0.18249937891960144,1.0,-7.138424586072771e-07,0.0001429716594527847,3.325844220012025e-07,-2.7370588043547003e-05,4.398991489425191e-06,0.0,-1.245890124322832e-08,2.4953261944911673e-06,5.804693204763252e-09,-4.777068795668883e-07,7.677688525767889e-08,0.0
5.016666928306222,6.967366239507555e-09,0.0,-1.1731609461662629e-08,0.0,0.18249939382076263,1.0,1.236509384082828e-06,-6.936042431799335e-05,2.0938945620780917e-08,5.5150713032847485e-06,4.34468125598203e-06,0.0,2.1581159984052515e-08,-1.2105677749293265e-06,3.6545354297867497e-10,9.625615272457362e-08,7.5828992866569e-08,0.0
5.050000263378024,5.415257575691612e-09,0.0,2.255525899386157e-08,0.0,0.18249937891960144,1.0,-5.881429590314119e-06,-7.634074614901401e-05,4.580089907990597e-07,5.6410251158873445e-06,4.11328911095188e-06,0.0,-1.0265031107520258e-07,-1.3323973737294763e-06,7.993764893180007e-09,9.845446145992885e-08,7.179043807254065e-08,0.0
5.083333598449826,4.3842252051007335e-10,0.0,2.1127464222558956e-08,0.0,0.18249937891960144,1.0,-3.852838630491188e-06,-7.656880966635052e-05,5.647180074757922e-07,4.657378121820869e-06,4.2368074068596756e-06,0.0,-6.724471965010042e-08,-1.3363778330106773e-06,9.856188575754527e-09,8.128658273612373e-08,7.394623902258432e-08,0.0
5.116666933521628,-4.275189979807692e-09,0.0,5.380424106249393e-09,0.0,0.18249937891960144,1.0,-2.6357261230083367e-07,0.0001410138219534946,1.5560201805341292e-07,-2.5645776192482537e-05,3.712337724292329e-06,0.0,-4.600209902732055e-09,2.461155483909543e-06,2.7157675377797135e-09,-4.4760323378839533e-07,6.479251623489462e-08,0.0
5.1500002685934305,-6.598607882324359e-09,0.0,1.5651066220812027e-08,0.0,0.18249937891960144,1.0,-1.9127748595555567e-06,-7.561477548489425e-05,-1.4785912424888855e-06,1.0909874107350234e-05,4.848808866335095e-06,0.0,-3.3384219148616586e-08,-1.3197267953676965e-06,-2.5806285472584928e-08,1.9041322415133886e-07,8.462767951744105e-08,0.0
5.183333603665233,2.5142556925317194e-09,0.0,1.565360108202185e-08,0.0,0.18249937891960144,1.0,-3.735249116995841e-06,-7.481668289757678e-05,1.394933072031482e-08,6.314863644844593e-06,3.852008551588454e-06,0.0,-6.519239547378831e-08,-1.3057974519832462e-06,2.4346174951908587e-10,1.1021516241702798e-07,6.723023204019637e-08,0.0
5.216666938737035,-3.5146967558574715e-09,0.0,1.0160515984125595e-08,0.0,0.18249936401844025,1.0,-1.6825933994172367e-06,-7.494741670775001e-05,6.232082805733187e-07,4.568814081685383e-06,4.484367544216157e-06,0.0,-2.936679479215482e-08,-1.3080791874144465e-06,1.0877036421697026e-08,7.974084863689109e-08,7.826697851614433e-08,0.0
5.250000273808837,-7.80291653512677e-09,0.0,-8.643197269009306e-09,0.0,0.18249939382076263,1.0,2.856609438424675e-07,-6.694417302340465e-05,2.594191068652792e-07,2.9464867265778785e-06,4.571346411887587e-06,0.0,4.98572401440568e-09,-1.1683962342831782e-06,4.527717557382148e-09,5.1425894745093895e-08,7.978504613666725e-08,0.0
5.283333608880639,5.329515939678231e-09,0.0,2.5699653960487012e-08,0.0,0.18249937891960144,1.0,-5.370495108135856e-06,0.00013648147428455307,4.895731958915219e-07,-2.4726775350679355e-05,3.9353946324043545e-06,0.0,-9.373282209921959e-08,2.3820510942414233e-06,8.544664197818232e-09,-4.3156364327033026e-07,6.868559370076791e-08,0.0
5.316666943952441,1.097145263528887e-09,0.0,1.2143353878002472e-08,0.0,0.18249937891960144,1.0,-1.6398970446834705e-06,0.00013598315692268446,7.858019556584261e-08,-2.4482440821398597e-05,3.516798239486806e-06,0.0,-2.8621602823451132e-08,2.373353815556964e-06,1.3714831394850021e-09,-4.272992012580705e-07,6.137970840738482e-08,0.0
5.350000279024243,-3.4355189804102793e-09,0.0,8.971206000296661e-09,0.0,0.18249937891960144,1.0,-3.92193106729831e-06,-7.306495095999122e-05,5.287524042580418e-07,5.143938815128542e-06,4.376701739081606e-06,0.0,-6.845061016061082e-08,-1.2752239620600383e-06,9.228470382138913e-09,8.977866884512896e-08,7.63878557247358e-08,0.0
5.3833336140960455,-7.765402543213895e-09,0.0,8.383306493442433e-09,0.0,0.18249936401844025,1.0,-1.8636710842896232e-06,-7.320984549883895e-05,5.380128760126501e-07,4.424969827733144e-06,4.159543041886441e-06,0.0,-3.252719659506669e-08,-1.27775284883109e-06,9.390096104544766e-09,7.723029279534965e-08,7.25977214593388e-08,0.0
5.416666949167848,5.036803418789759e-09,0.0,-3.5060747638482326e-09,0.0,0.18249939382076263,1.0,2.901365058229876e-07,-6.54840428825978e-05,-6.44562416051003e-08,5.121570517168036e-06,4.338951168278763e-06,0.0,5.0638373068428336e-09,-1.14291215581849e-06,-1.124973639469955e-09,8.9388268397651e-08,7.572898396971895e-08,0.0
5.45000028423965,4.750478677095771e-09,0.0,2.504609852849171e-08,0.0,0.18249936401844025,1.0,-7.281165538256213e-06,-7.186184601173111e-05,7.289029466761256e-07,4.9343316868222965e-06,4.23347884000255e-06,0.0,-1.2708031202531606e-07,-1.2542258194658636e-06,1.272175634698705e-08,8.612033432053476e-08,7.388814457155472e-08,0.0
5.483333619311452,-1.8730161865931905e-10,0.0,-5.239951139657251e-09,0.0,0.18249937891960144,1.0,2.034095080399768e-06,-6.49304504510027e-05,-3.5607852923549216e-07,6.193159275276596e-06,5.0504610910258775e-06,0.0,3.550165645159472e-08,-1.1332501451730341e-06,-6.2147427308182255e-09,1.0809102045400245e-07,8.81471747822666e-08,0.0
5.516666954383254,6.005248520679629e-10,0.0,2.4153104405399972e-08,0.0,0.18249937891960144,1.0,-6.731530674526332e-06,-7.181707407393571e-05,7.404606804271788e-07,4.914348703974518e-06,4.666808197508337e-06,0.0,-1.1748737396947926e-07,-1.2534444017388357e-06,1.2923476855011801e-08,8.577156547547148e-08,8.145116860558231e-08,0.0
5.550000289455056,-3.814061511064892e-09,0.0,1.547228123399691e-08,0.0,0.18249936401844025,1.0,-4.514480709613521e-06,-7.131216588067713e-05,7.37776507917821e-07,4.259083028322231e-06,4.682017878871205e-06,0.0,-7.879255240052597e-08,-1.2446320913461775e-06,1.287662920703199e-08,7.433502196003383e-08,8.171662762354357e-08,0.0
5.583333624526858,-5.806132907792971e-09,0.0,1.87191879774673e-08,0.0,0.18249936401844025,1.0,-6.041744189611052e-06,-7.073948235623673e-05,7.965348237051169e-07,4.216412562585038e-06,4.184262788512928e-06,0.0,-1.0544832867194944e-07,-1.2346368782727672e-06,1.3902155280446869e-08,7.359028183956038e-08,7.302916242822975e-08,0.0
5.6166669595986605,-4.553803112372634e-09,0.0,2.6253152540789415e-08,0.0,0.18249937891960144,1.0,-5.609483110162351e-06,0.00013033116425353544,3.887230532030773e-07,-2.3434492994883496e-05,3.8638782613078645e-06,0.0,-9.79039496073448e-08,2.274707934181731e-06,6.784497156798788e-09,-4.0900906129626366e-07,6.743739755605605e-08,0.0
5.650000294670463,-6.824201648214512e-09,0.0,1.6521877199693336e-08,0.0,0.18249936401844025,1.0,-2.7856341774645915e-06,-7.034553750467413e-05,9.886006681374735e-07,3.427357283484145e-06,4.2345833544259115e-06,0.0,-4.861848815284115e-08,-1.2277612435417195e-06,1.725433664641471e-08,5.9818669239007e-08,7.390742198487816e-08,0.0
5.683333629742265,-1.2869791454761526e-08,0.0,1.4897569844407599e-09,0.0,0.18249939382076263,1.0,-8.150892745194871e-08,-6.429725738147854e-05,-3.469208817232011e-07,7.729617975149482e-06,4.282026873221764e-06,0.0,-1.4225991538056973e-09,-1.1221988413090283e-06,-6.054911629991678e-09,1.349072835876957e-07,7.473546759659759e-08,0.0
5.716666964814067,-4.442444634378262e-09,0.0,2.539187171635149e-08,0.0,0.18249939382076263,1.0,-5.436297267183891e-06,0.00012755537319426925,6.196156092432191e-07,-2.4887423721057214e-05,4.215219114384842e-06,0.0,-9.488128642952879e-08,2.226261240850115e-06,1.0814332478044784e-08,-4.343674862713872e-07,7.356945223901496e-08,0.0
5.750000299885869,-8.198181689067496e-09,0.0,1.7670988228246642e-08,0.0,0.18249936401844025,1.0,-2.7487810700233357e-06,-6.920139071042951e-05,8.488841922747929e-07,3.3672591369035096e-06,4.2434579707674744e-06,0.0,-4.797528008840001e-08,-1.2077921148560129e-06,1.481582412332775e-08,5.8769758706828744e-08,7.406231325988972e-08,0.0
5.783333634957671,-8.261637596262972e-09,0.0,-3.631065892406582e-09,0.0,0.18249939382076263,1.0,-1.4715260024755276e-07,-6.170862871761174e-05,2.841467154342982e-07,2.3749850925318514e-06,4.561700729971312e-06,0.0,-2.5682973771908184e-09,-1.0770187480130511e-06,4.959295743055893e-09,4.1451309550462996e-08,7.961669722862816e-08,0.0
5.816666970029473,4.612558335281847e-09,0.0,2.0299866676509737e-08,0.0,0.18249937891960144,1.0,-5.379706400174623e-06,0.0001251574603776067,4.948506405527336e-07,-2.2967977120106475e-05,4.224509393550521e-06,0.0,-9.389358947365882e-08,2.1844097670235824e-06,8.636772983248173e-09,-4.0086682326858306e-07,7.373159819888549e-08,0.0
5.850000305101275,-4.561505395628274e-09,0.0,1.229100732302868e-08,0.0,0.18249937891960144,1.0,-1.258439950007029e-06,0.0001258635316076571,-1.5318653185449899e-07,-2.12530759918636e-05,4.54700931738937e-06,0.0,-2.1963920566255496e-08,2.1967330347415683e-06,-2.6736093505721824e-09,-3.709361522345794e-07,7.936028370730435e-08,0.0
5.883333640173078,-4.325626523637993e-09,0.0,9.717184390467537e-09,0.0,0.18249937891960144,1.0,-2.283760632673287e-06,-6.725547488449646e-05,-8.53656204136468e-07,7.850346097513619e-06,4.634801191259462e-06,0.0,-3.985914236757765e-08,-1.1738294767268162e-06,-1.4899111442258205e-08,1.3701438682270048e-07,8.089254096283304e-08,0.0
5.91666697524488,2.349553052116704e-10,0.0,1.508007230199837e-08,0.0,0.18249937891960144,1.0,-2.487162418576245e-06,-6.669321730700291e-05,-1.3104056037973242e-07,5.672349146580513e-06,4.563626368206727e-06,0.0,-4.340917323602085e-08,-1.1640162307552667e-06,-2.2870892322847617e-09,9.900116893052041e-08,7.965030595603845e-08,0.0
5.950000310316682,2.126596121421187e-10,0.0,-6.489307313728432e-09,0.0,0.18249937891960144,1.0,3.0249749863329895e-07,-5.8340659565422224e-05,-4.4054047405920276e-07,7.511011989311229e-06,4.97395639009783e-06,0.0,5.2795773301981135e-09,-1.018236597201742e-06,-7.688881760629757e-09,1.3109188937025008e-07,8.681191585781862e-08,0.0
5.983333645388484,-3.5543583631891806e-09,0.0,-8.778753723959198e-09,0.0,0.18249937891960144,1.0,2.794923462230325e-06,-5.975403938379116e-05,-1.6830523557242617e-07,4.728126469606246e-06,4.760269930326313e-06,0.0,4.878061675715855e-08,-1.0429047286135193e-06,-2.93748050908352e-09,8.25213743453246e-08,8.308238356787523e-08,0.0
