time,x,x_target,y,y_target,z,z_target,roll_deg,roll_target_deg,pitch_deg,pitch_target_deg,yaw_deg,yaw_target_deg,roll_rad,roll_target_rad,pitch_rad,pitch_target_rad,yaw_rad,yaw_target_rad
0.01666666753590107,0.0,0.0,0.0,0.0,0.19727498292922974,1.0,0.0,-0.0,0.0,0.0,0.0,0.0,0.0,-0.0,0.0,0.0,0.0,0.0
0.05000000260770321,-7.643204125162839e-11,0.0,5.34493506149102e-17,0.0,0.18413496017456055,1.0,1.6570547147626871e-12,2.9758004409036796e-14,6.486596239545602e-08,1.32632831645035e-10,3.992330349923824e-06,0.0,2.892106065830438e-14,5.193751557606816e-16,1.1321246162755357e-09,2.3148796084491876e-12,6.967930943346807e-08,0.0
0.08333333767950535,-7.69042340920123e-09,0.0,-2.9381091337654652e-08,0.0,0.18249939382076263,1.0,5.849665593951949e-06,0.00022768207140958996,1.8297176599740319e-07,-2.8798322499475212e-05,5.4425020780558475e-06,0.0,1.020959247550912e-07,3.973801793858192e-06,3.193459754843292e-09,-5.026255466670054e-07,9.498958080870797e-08,0.0
0.11666667275130749,-1.4742388421140618e-09,0.0,4.734986625010151e-09,0.0,0.18249937891960144,1.0,8.948459357522217e-08,-3.378815334642766e-05,-2.219015016387892e-07,2.8842784071942507e-06,3.6429977648665495e-06,0.0,1.5618007876965908e-09,-5.897145240639029e-07,-3.8729118187164645e-09,5.0340154749717374e-08,6.35823056397155e-08,0.0
0.15000000782310963,-1.4560147754139052e-08,0.0,-1.4463890352089948e-07,0.0,0.1840112805366516,1.0,6.359101260029321e-06,-3.447631096865297e-05,4.069099352524314e-06,2.9271055956399346e-06,2.7876499245574547e-05,0.0,1.1098725445523172e-07,-6.017251403444299e-07,7.101918129231872e-08,5.1087630197466635e-08,4.865366957649912e-07,0.0
0.18333334289491177,-2.5840394712872694e-08,0.0,-2.946480037735455e-07,0.0,0.18912194669246674,1.0,1.9038203972660112e-06,-3.5306906144068706e-05,6.409941478880892e-06,2.6277760079928183e-06,5.1065753339974054e-05,0.0,3.322793429891835e-08,-6.162217609066143e-07,1.1187458366662614e-07,4.586334334438751e-08,8.912655307938385e-07,0.0
0.2166666779667139,-3.67219676888908e-08,0.0,-4.4535354959407414e-07,0.0,0.19731201231479645,1.0,-1.2899722370793267e-06,-3.582581365875823e-05,2.239223667949293e-06,2.3527189796634016e-06,7.19155066107208e-05,0.0,-2.251426279635113e-08,-6.252784055512874e-07,3.908182569429939e-08,4.106269256928787e-08,1.2551623735968258e-06,0.0
0.25000001303851604,-4.5771205492428635e-08,0.0,-5.957699045211484e-07,0.0,0.20796872675418854,1.0,-2.743047576295789e-06,-3.622180070664936e-05,-1.0461749601532923e-06,2.3130454668722835e-06,9.165957590151824e-05,0.0,-4.787521174521188e-08,-6.3218968333224e-07,-1.825919760659543e-08,4.0370259145250775e-08,1.599761390463143e-06,0.0
0.2833333481103182,-5.527408220018515e-08,0.0,-7.462414259862271e-07,0.0,0.220571830868721,1.0,-4.4343837076442055e-06,-3.6554596647159e-05,-3.825217597302289e-06,2.4343389266244294e-06,0.0001104037871647311,0.0,-7.739459599518503e-08,-6.379980682314045e-07,-6.67626416781515e-08,4.248722937906094e-08,1.926909592695613e-06,0.0
0.3166666831821203,-6.644005878797543e-08,0.0,-8.950016763265012e-07,0.0,0.23468324542045593,1.0,-7.561963537759673e-06,-3.679173818793889e-05,-4.079896766566575e-06,2.6995482495761473e-06,0.00012807493199752835,0.0,-1.3198116164966484e-07,-6.421369689112659e-07,-7.120763171805725e-08,4.7116005271553384e-08,2.235329252624708e-06,0.0
0.35000001825392246,-7.715075156511375e-08,0.0,-1.0423516414448386e-06,0.0,0.2499336302280426,1.0,-9.662964255685032e-06,-3.6875453350486703e-05,1.3968892503747338e-06,2.8890890951951534e-06,0.00014502098883425855,0.0,-1.68650541764227e-07,-6.435980741315675e-07,2.438031670475454e-08,5.0424117094619314e-08,2.531093739655745e-06,0.0
0.3833333533257246,-8.876185120243463e-08,0.0,-1.188080318570428e-06,0.0,0.26601147651672363,1.0,-1.1559168014548079e-05,-3.688779941739012e-05,5.011323056787739e-06,2.7960870753388124e-06,0.00016126148648288514,0.0,-2.017455406450798e-07,-6.438135536487037e-07,8.746408722205282e-08,4.880092563712102e-08,2.814543895786676e-06,0.0
0.41666668839752674,-9.864388061942009e-08,0.0,-1.3312737792148255e-06,0.0,0.2826543152332306,1.0,-1.4243625464073265e-05,-3.67988831182596e-05,-2.3784726027148135e-07,2.5997471128999328e-06,0.00017594499717997543,0.0,-2.4859816176898377e-07,-6.422616714701878e-07,-4.1512178085852515e-09,4.5374146839320573e-08,3.0708195032027094e-06,0.0
0.4500000234693289,-1.0887200119213958e-07,0.0,-1.47189564358996e-06,0.0,0.29964134097099304,1.0,-1.6725323252012167e-05,-3.6600615646033687e-05,-1.957254923221922e-06,2.7317738821824583e-06,0.0001897207347489224,0.0,-2.919119592079776e-07,-6.388012512802393e-07,-3.416054271109136e-08,4.7678448664071557e-08,3.3112514806715135e-06,0.0
0.483333358541131,-1.198157519866072e-07,0.0,-1.6094624015750014e-06,0.0,0.3167871832847595,1.0,-1.9119567703717207e-05,-3.629311981783547e-05,4.503499161973858e-06,2.793004650561311e-06,0.00020152572809961937,0.0,-3.336994079878369e-07,-6.334344366420335e-07,7.860088823724924e-08,4.874712717580856e-08,3.517287482817213e-06,0.0
0.5166666936129332,-1.298120508863576e-07,0.0,-1.7427566945116268e-06,0.0,0.3339371979236603,1.0,-2.1531384933758687e-05,-3.587755872975642e-05,-3.808680120212521e-07,2.5980622614124533e-06,0.00021058174048539915,0.0,-3.7579355960839025e-07,-6.26181527411884e-07,-6.6474008252961926e-09,4.5344740633456935e-08,3.675344716050457e-06,0.0
0.5500000286847353,-1.4099848044679675e-07,0.0,-1.8720144225881086e-06,0.0,0.3509627878665924,1.0,-2.3487287327879887e-05,-3.535890010635811e-05,7.643094880652944e-07,2.746280235372551e-06,0.0002172969482535059,0.0,-4.0993049623344495e-07,-6.171292267397222e-07,1.3339717070971693e-08,4.793163228969586e-08,3.7925472015594196e-06,0.0
0.5833333637565374,-1.4963616479235498e-07,0.0,-1.997335857595317e-06,0.0,0.36775800585746765,1.0,-2.5125776016367614e-05,-3.476011789362492e-05,3.0438662831626904e-06,2.640662321636326e-06,0.00022157635526359217,0.0,-4.385275186042395e-07,-6.06678505625151e-07,5.3125488631630984e-08,4.6088251945911384e-08,3.867236943918351e-06,0.0
0.6166666988283396,-1.5838726596939523e-07,0.0,-2.11848760045541e-06,0.0,0.38423627614974976,1.0,-2.6485960668218123e-05,-3.40886606070837e-05,-7.063740115919667e-07,2.618314073329191e-06,0.00022329000028111024,0.0,-4.622672192141237e-07,-5.949593651884996e-07,-1.2328552252800411e-08,4.569820143089863e-08,3.8971456916844375e-06,0.0
0.6500000339001417,-1.6751143050441897e-07,0.0,-2.2333008473651716e-06,0.0,0.4003276526927948,1.0,-2.7425333610029073e-05,-3.3353074064630884e-05,4.2325219419395616e-06,2.621543911777503e-06,0.00022356094613085395,0.0,-4.786623699528699e-07,-5.821209580893369e-07,7.387144354974961e-08,4.575457274612918e-08,3.901874588857079e-06,0.0
0.6833333689719439,-1.762780357239535e-07,0.0,-2.344723498026724e-06,0.0,0.41597697138786316,1.0,-2.81155917917104e-05,-3.257719638919135e-05,-7.04952815527873e-07,2.504922315683672e-06,0.00022226155322766463,0.0,-4.907096479120382e-07,-5.685793380601971e-07,-1.2303747702165591e-08,4.371914191536087e-08,3.8791959044193775e-06,0.0
0.716666704043746,-1.852291262594008e-07,0.0,-2.4499231585650705e-06,0.0,0.43114134669303894,1.0,-2.870515372970343e-05,-3.176036344729678e-05,4.33532848235051e-06,2.551510139521725e-06,0.0002201785245731531,0.0,-5.009994448744553e-07,-5.543229137853854e-07,7.566575617250527e-08,4.4532252832674e-08,3.842840195984764e-06,0.0
0.7500000391155481,-1.9184632549240632e-07,0.0,-2.550427325331839e-06,0.0,0.44578859210014343,1.0,-2.9252514857304733e-05,-3.090690151710691e-05,-1.062503303279133e-07,2.387647002233096e-06,0.00021718265772381108,0.0,-5.105526987485268e-07,-5.394271930631461e-07,-1.8544180955536735e-09,4.167230156433993e-08,3.7905524555123967e-06,0.0
0.7833333741873503,-2.0130357825109968e-07,0.0,-2.645622089403332e-06,0.0,0.45989567041397095,1.0,-2.957829961777248e-05,-3.0020486074749306e-05,4.327608763349257e-06,2.4400985099676167e-06,0.00021336805908574156,0.0,-5.162387154715101e-07,-5.239563250534839e-07,7.553102165860463e-08,4.2587753071942586e-08,3.7239751496359924e-06,0.0
0.8166667092591524,-2.0751306806232606e-07,0.0,-2.735178213697509e-06,0.0,0.47344762086868286,1.0,-2.9676375454389646e-05,-2.910415300103934e-05,2.057945039507014e-07,2.2533712969771956e-06,0.00020920745087511328,0.0,-5.179504617371276e-07,-5.079632958723251e-07,3.5917916764482177e-09,3.9328748402187006e-08,3.651358837475019e-06,0.0
0.8500000443309546,-2.1443371167606529e-07,0.0,-2.819441988322069e-06,0.0,0.48643577098846436,1.0,-2.9553284230763566e-05,-2.817197733417951e-05,4.0778813647975765e-06,2.3075297883769415e-06,0.00020480602630408378,0.0,-5.158021146045439e-07,-4.916937612786473e-07,7.11724563214377e-08,4.0273992395025605e-08,3.574539486932375e-06,0.0
0.8833333794027567,-2.2065582072627876e-07,0.0,-2.8982324238313595e-06,0.0,0.49885740876197815,1.0,-2.9320556525235517e-05,-2.7229581464926575e-05,5.95127971921177e-07,2.1117935546625466e-06,0.00019922049034916766,0.0,-5.117402498824676e-07,-4.752458505029896e-07,1.0386942580740902e-08,3.685775065125629e-08,3.4770534940305633e-06,0.0
0.9166667144745588,-2.267302079417277e-07,0.0,-2.972607944684569e-06,0.0,0.510714590549469,1.0,-2.909824914843142e-05,-2.628228021390076e-05,3.716811250945506e-06,2.1641030612158568e-06,0.000193139527929234,0.0,-5.078602542057645e-07,-4.587123246643278e-07,6.487059400416828e-08,3.77707237707051e-08,3.3709206781126787e-06,0.0
0.950000049546361,-2.3273047133898217e-07,0.0,-3.0399371553357923e-06,0.0,0.522013247013092,1.0,-2.8777561257756856e-05,-2.53220656995017e-05,8.728356670912138e-07,1.969047901954768e-06,0.00018669033024131557,0.0,-5.022631946422177e-07,-4.419534198626257e-07,1.52338562195828e-08,3.436636901859719e-08,3.2583609443464964e-06,0.0
0.9833333846181631,-2.3769267443185527e-07,0.0,-3.1043107355799293e-06,0.0,0.5327627062797546,1.0,-2.8472504476447024e-05,-2.4366981870336874e-05,3.2124935001828578e-06,2.0222206407560114e-06,0.00018000301365477092,0.0,-4.969389494028248e-07,-4.252840624111444e-07,5.606858877710793e-08,3.5294408382981834e-08,3.1416452517880643e-06,0.0
1.0166667196899652,-2.4347392013623903e-07,0.0,-3.162303528370103e-06,0.0,0.5429749488830566,1.0,-2.8070939747811426e-05,-2.3400649636300808e-05,1.3207146406008954e-06,1.8330023518227197e-06,0.00017344504868547898,0.0,-4.899303227282561e-07,-4.0841838325906266e-07,2.3050818957779204e-08,3.199192623610594e-08,3.027187170843471e-06,0.0
1.0500000547617674,-2.471243760737707e-07,0.0,-3.2143404951057164e-06,0.0,0.5526643991470337,1.0,-2.743529767454594e-05,-2.2433220155305695e-05,2.5739938337827586e-06,1.8732644216347624e-06,0.00016722693269716058,0.0,-4.788362756855703e-07,-3.915335535348381e-07,4.4924667325540785e-08,3.26946319179939e-08,2.9186605735764137e-06,0.0
1.0833333898335695,-2.5138723458439927e-07,0.0,-3.2634156923450064e-06,0.0,0.5618464350700378,1.0,-2.682153484669288e-05,-2.148189422158934e-05,1.97271354784514e-06,1.6965791847562129e-06,0.00016176613480752897,0.0,-4.681240935131833e-07,-3.7492978373187833e-07,3.4430346608596384e-08,2.9610892794797105e-08,2.8233516706163843e-06,0.0
1.1166667249053717,-2.5484627030891716e-07,0.0,-3.305525297037093e-06,0.0,0.5705385804176331,1.0,-2.616296650087639e-05,-2.0532630550959166e-05,1.695038229130175e-06,1.7150927062355437e-06,0.0001570572089728141,0.0,-4.566299075292729e-07,-3.583620072098148e-07,2.958399804549561e-08,2.993401470075012e-08,2.7411654105683873e-06,0.0
1.1500000599771738,-2.5855649710138096e-07,0.0,-3.344206788824522e-06,0.0,0.5787590146064758,1.0,-2.554169720057018e-05,-1.959906629811924e-05,2.9678170340559918e-06,1.5710718323361029e-06,0.0001526784009559161,0.0,-4.457867126973681e-07,-3.4206823721883726e-07,5.1798178841049734e-08,2.742037625960531e-08,2.664740793360794e-06,0.0
1.183333395048976,-2.61045158822526e-07,0.0,-3.378458586666966e-06,0.0,0.5865264534950256,1.0,-2.491867080678906e-05,-1.8674061092746687e-05,5.416350254486795e-07,1.5426464744154058e-06,0.0001485920362439897,0.0,-4.3491285079906085e-07,-3.259238507869999e-07,9.453314538202734e-09,2.69242601728313e-08,2.5934202747003684e-06,0.0
1.216666730120778,-2.6434244659867545e-07,0.0,-3.4075239909725497e-06,0.0,0.5938604474067688,1.0,-2.4237683956929408e-05,-1.7756902310013342e-05,3.853138614158656e-06,1.457901648020368e-06,0.00014398736913579204,0.0,-4.2302738810622566e-07,-3.0991641026471967e-07,6.724995535279995e-08,2.5445183928206893e-08,2.5130536727040332e-06,0.0
1.2500000651925802,-2.6542278419583454e-07,0.0,-3.433580559430993e-06,0.0,0.6007801294326782,1.0,-2.3506319327289273e-05,-1.6855852062399824e-05,-4.530770182680987e-07,1.3645873151041214e-06,0.0001400083387887989,0.0,-4.102626672863764e-07,-2.941901167179536e-07,-7.907685733896819e-09,2.3816541579516265e-08,2.4436064921122306e-06,0.0
1.2833334002643824,-2.6819768095265317e-07,0.0,-3.4529743970779236e-06,0.0,0.6073053479194641,1.0,-2.2748155444084318e-05,-1.596461048809348e-05,4.540976118360843e-06,1.3508318355349814e-06,0.00013629684034684736,0.0,-3.970302112547442e-07,-2.786350168156502e-07,7.925498451982845e-08,2.3576463170843962e-08,2.3788286241175365e-06,0.0
1.3166667353361845,-2.688476854473265e-07,0.0,-3.467848728178069e-06,0.0,0.613455593585968,1.0,-2.198349164512452e-05,-1.5087763788016782e-05,-7.564163945798064e-07,1.1832646169883466e-06,0.00013270967890190586,0.0,-3.8368431029208774e-07,-2.6333115486406463e-07,-1.320195660148221e-08,2.065186348879628e-08,2.3162208461027103e-06,0.0
1.3500000704079866,-2.717465008572617e-07,0.0,-3.4822276120394235e-06,0.0,0.6192496418952942,1.0,-2.1086824112390635e-05,-1.4240085592247271e-05,4.138146350948899e-06,1.2375957643448401e-06,0.0001296217703781472,0.0,-3.6803450955014736e-07,-2.485363793505216e-07,7.222427875344706e-08,2.1600120896553303e-08,2.262326675362724e-06,0.0
1.3833334054797888,-2.7156912096870656e-07,0.0,-3.490018116281135e-06,0.0,0.6247066855430603,1.0,-2.0338466025114783e-05,-1.3409066112896307e-05,-6.288187062593319e-08,1.022903088126192e-06,0.00012700632073357908,0.0,-3.549731969432567e-07,-2.3403235328763825e-07,-1.097495682235642e-09,1.7853026816619766e-08,2.2166784676448947e-06,0.0
1.416666740551591,-2.7277772574052506e-07,0.0,-3.493909161988995e-06,0.0,0.6298445463180542,1.0,-1.957791615567434e-05,-1.2593794091829195e-05,2.7025124823651247e-06,1.1003553344872983e-06,0.00012482563833554858,0.0,-3.4169909759590796e-07,-2.1980317222062854e-07,4.716774089351662e-08,1.9204823528686866e-08,2.178618379858977e-06,0.0
1.450000075623393,-2.7276126957076485e-07,0.0,-3.4952242913277587e-06,0.0,0.6346813440322876,1.0,-1.883877649299894e-05,-1.1800728065503645e-05,1.5308864755268295e-06,8.995433300219407e-07,0.00012328394501728493,0.0,-3.28798676850142e-07,-2.0596155887553967e-07,2.6719009472194768e-08,1.569999287323682e-08,2.1517107553992797e-06,0.0
1.4833334106951952,-2.725476235809765e-07,0.0,-3.493767962936545e-06,0.0,0.6392344236373901,1.0,-1.8061399297598257e-05,-1.1029290526808183e-05,3.644971721328404e-07,9.326607774772596e-07,0.0001224165838285472,0.0,-3.1523088526048077e-07,-1.924974338518227e-07,6.361675767926587e-09,1.6278001371188352e-08,2.136572446851794e-06,0.0
1.5166667457669973,-2.7279060077489703e-07,0.0,-3.48727098753443e-06,0.0,0.6435200572013855,1.0,-1.718890323251294e-05,-1.0274589773057282e-05,3.6125995731370067e-06,8.324958785337646e-07,0.00012194665348924893,0.0,-3.000029562140472e-07,-1.7932542083158655e-07,6.305175710738246e-08,1.4529794089696976e-08,2.1283706151760254e-06,0.0
1.5500000808387995,-2.712458240239357e-07,0.0,-3.4782949569489574e-06,0.0,0.6475544571876526,1.0,-1.64975590207111e-05,-9.547172752949453e-06,-1.2526954096499727e-06,7.398044398020076e-07,0.00012155655719514388,0.0,-2.879367234535001e-07,-1.6662959879565913e-07,-2.186365942301117e-08,1.291202329541722e-08,2.121562150444064e-06,0.0
1.5833334159106016,-2.7116462320009305e-07,0.0,-3.466412863417645e-06,0.0,0.6513527035713196,1.0,-1.5820950924390857e-05,-8.836309501698997e-06,4.328856052137916e-06,7.648617936492e-07,0.00012100698913705865,0.0,-2.761276844270609e-07,-1.5422269452990698e-07,7.555279095468996e-08,1.3349356621887995e-08,2.1119703783666854e-06,0.0
1.6166667509824038,-2.6847391154660727e-07,0.0,-3.4511117519286927e-06,0.0,0.6549298763275146,1.0,-1.5273740886336704e-05,-8.141010047362145e-06,-1.1389688645257973e-06,5.611251270527387e-07,0.00012049890233193947,0.0,-2.665770675630525e-07,-1.4208742976440895e-07,-1.9878756763676406e-08,9.793480982741796e-09,2.103102590731417e-06,0.0
1.650000086054206,-2.684486162252142e-07,0.0,-3.4331928873143625e-06,0.0,0.658299446105957,1.0,-1.4590365503336248e-05,-7.460445596400234e-06,2.4290109162841463e-06,6.725719711456691e-07,0.00012017408591745389,0.0,-2.5464991710261723e-07,-1.302093393230961e-07,4.23942380560427e-08,1.1738595353120224e-08,2.097433474834121e-06,0.0
1.683333421126008,-2.666251646132878e-07,0.0,-3.412373416722403e-06,0.0,0.6614751219749451,1.0,-1.402761411494689e-05,-6.799595649756051e-06,1.0898988140725768e-06,4.7306646032338517e-07,0.00012034421289455401,0.0,-2.4482805250505354e-07,-1.1867533189252626e-07,1.9022322819147974e-08,8.25656731339819e-09,2.100402750730983e-06,0.0
1.7166667561978102,-2.646218320023763e-07,0.0,-3.3894646094267955e-06,0.0,0.6644688248634338,1.0,-1.3382962255374565e-05,-6.154271950786755e-06,-7.108364034527787e-07,5.245254861840222e-07,0.00012079465374808827,0.0,-2.3357675502641235e-07,-1.074123086043633e-07,-1.2406435683285775e-08,9.154696744535215e-09,2.1082644267106493e-06,0.0
1.7500000912696123,-2.6277561460119614e-07,0.0,-3.363727046234999e-06,0.0,0.66729336977005,1.0,-1.2802361275907321e-05,-5.527349922037569e-06,3.54347923836317e-06,4.657966505040413e-07,0.00012172082102176766,0.0,-2.2344335629440495e-07,-9.647045504940746e-08,6.184537968549828e-08,8.129685196056825e-09,2.124429095060574e-06,0.0
1.7833334263414145,-2.606165594443155e-07,0.0,-3.3356759558955673e-06,0.0,0.6699592471122742,1.0,-1.2301923099485769e-05,-4.915050061565709e-06,-2.3537335120683467e-06,3.583110984673328e-07,0.00012231292390761243,0.0,-2.1470906241317262e-07,-8.578380647467163e-08,-4.108039950012234e-08,6.253708414692565e-09,2.1347632399291253e-06,0.0
1.8166667614132166,-2.586823484307388e-07,0.0,-3.3048017940018326e-06,0.0,0.6724778413772583,1.0,-1.1611663611632555e-05,-4.314541748314405e-06,3.2953439353323417e-06,4.588584323524611e-07,0.00012286336344706885,0.0,-2.0266176165700423e-07,-7.530295922283888e-08,5.751460165717646e-08,8.008590445090116e-09,2.144370222225801e-06,0.0
1.8500000964850187,-2.563518819442834e-07,0.0,-3.2720508897909895e-06,0.0,0.6748585104942322,1.0,-1.0801655402450151e-05,-3.7388449826384286e-06,-6.751563428704221e-07,2.5484029962829246e-07,0.00012361520992422922,0.0,-1.885244514385883e-07,-6.525515516871081e-08,-1.1783701148812608e-08,4.447802295282585e-09,2.1574924187217702e-06,0.0
1.8833334315568209,-2.5380518309248146e-07,0.0,-3.238018280171673e-06,0.0,0.6771113872528076,1.0,-9.770787468210491e-06,-3.1963990652474428e-06,2.5282821207735014e-07,3.6942787272362173e-07,0.00012464103836422105,0.0,-1.7053241183287386e-07,-5.578768789623693e-08,4.412684742680252e-09,6.447732727665751e-09,2.1753965025602244e-06,0.0
1.916666766628623,-2.516667620966473e-07,0.0,-3.200464334440767e-06,0.0,0.6792447566986084,1.0,-8.817390134744345e-06,-2.6875286150729277e-06,2.8182585504960593e-06,2.537350818768943e-07,0.00012549761273885254,0.0,-1.5389248928415527e-07,-4.6906223074585895e-08,4.91878908786391e-08,4.428512606569198e-09,2.1903465456857555e-06,0.0
1.9500001017004251,-2.4748646865191404e-07,0.0,-3.162818074997631e-06,0.0,0.6812671422958374,1.0,-7.950933341865012e-06,-2.215974561565191e-06,-2.3571425335945086e-06,1.9719958273879435e-07,0.00012652027594931863,0.0,-1.3876996542214036e-07,-3.867605223975037e-08,-4.113989815002522e-08,3.441782002350938e-09,2.2081953858474043e-06,0.0
1.9833334367722273,-2.459484846895066e-07,0.0,-3.1229353680828353e-06,0.0,0.6831867098808289,1.0,-7.003272986569141e-06,-1.7746017264634177e-06,3.8778976034193606e-06,2.6756126967484766e-07,0.00012736327540954035,0.0,-1.2223017203160814e-07,-3.0972643038362424e-08,6.768208123486515e-08,4.669825106642549e-09,2.2229085020208083e-06,0.0
2.0166667718440294,-2.4328082304236887e-07,0.0,-3.081681597905117e-06,0.0,0.6850104331970215,1.0,-6.26789753965743e-06,-1.3684493754483457e-06,-1.0052541591595801e-06,5.5358051821191075e-08,0.00012827904746762748,0.0,-1.09395449244674e-07,-2.3883947248433685e-08,-1.7544994896701785e-08,9.661802717694275e-10,2.2388917396321937e-06,0.0
2.0500001069158316,-2.4020016553549794e-07,0.0,-3.0410740237130085e-06,0.0,0.6867456436157227,1.0,-5.629275501045771e-06,-9.941187382667814e-07,8.480352216901328e-07,1.7798835485890465e-07,0.00012862670062299588,0.0,-9.824939199510219e-08,-1.7350645138527084e-08,1.4801006791372849e-08,3.1064828224959335e-09,2.2449594318483196e-06,0.0
2.0833334419876337,-2.367288232107967e-07,0.0,-2.9969112347316695e-06,0.0,0.6883980631828308,1.0,-5.094466826514913e-06,-6.341979275741522e-07,2.634243926236118e-06,2.817966986222198e-08,0.00012919087171338586,0.0,-8.891521975631199e-08,-1.106884194549349e-08,4.5976229813482896e-08,4.918280212207904e-10,2.254806074920191e-06,0.0
2.116666777059436,-2.3298245821479213e-07,0.0,-2.95292261398572e-06,0.0,0.6899744868278503,1.0,-4.634991304160806e-06,-2.9594159829350725e-07,-2.5249079576438383e-06,-1.1461528891515477e-08,0.00012974727867749066,0.0,-8.089585905891202e-08,-5.165155283836133e-09,-4.4067957170690504e-08,-2.0004141646940104e-10,2.264517208424846e-06,0.0
2.150000112131238,-2.303612518517184e-07,0.0,-2.907336238422431e-06,0.0,0.6914796829223633,1.0,-4.139111662708555e-06,2.754353841274383e-08,3.6803247813241834e-06,5.7947405034428206e-08,0.00013034997207946167,0.0,-7.224112662196128e-08,4.807254329519127e-10,6.423378497684731e-08,1.0113730108375102e-09,2.275036192669286e-06,0.0
2.18333344720304,-2.2556284307029273e-07,0.0,-2.861681196009158e-06,0.0,0.6929195523262024,1.0,-3.7846419962194006e-06,3.322844509003126e-07,-1.5440757880991816e-06,-1.459577949058181e-07,0.00013100292619594794,0.0,-6.605446384327932e-08,5.799457721391891e-09,-2.6949206402656995e-08,-2.547444090057133e-09,2.2864323918664216e-06,0.0
2.2166667822748423,-2.2168023861013353e-07,0.0,-2.814527533701039e-06,0.0,0.6942986249923706,1.0,-3.104339491281757e-06,6.246222589782088e-07,4.816962654658547e-07,-3.32279585682152e-09,0.00013100387714319614,0.0,-5.418094522255246e-08,1.0901715000414455e-08,8.40718582693982e-09,-5.799372807316161e-11,2.2864489890269153e-06,0.0
2.2500001173466444,-2.1792196491787763e-07,0.0,-2.7677010621118825e-06,0.0,0.6956215500831604,1.0,-2.468403094157069e-06,8.844213317739506e-07,2.364923230687913e-06,-1.406561696365989e-07,0.00013071574673826508,0.0,-4.308176125945646e-08,1.543606421432858e-08,4.1275696932405485e-08,-2.4549132734023267e-09,2.2814201647857643e-06,0.0
2.2833334524184465,-2.137601882168383e-07,0.0,-2.7209887321077986e-06,0.0,0.6968924403190613,1.0,-2.1769516765464562e-06,1.1199661439248056e-06,-2.9535625772961474e-06,-1.7246315617754653e-07,0.00013060780054965053,0.0,-3.799497441254628e-08,1.9547096722352547e-08,-5.154939163750729e-08,-3.010049913679385e-09,2.2795361483794612e-06,0.0
2.3166667874902487,-2.1028449737059418e-07,0.0,-2.6724064809968695e-06,0.0,0.6981154084205627,1.0,-1.8106967293770268e-06,1.3510717087099567e-06,3.280140369682102e-06,-8.190538276970498e-08,0.00013056751925100208,0.0,-3.160261968272185e-08,2.3580649747534493e-08,5.7249249378536664e-08,-1.4295186044375843e-09,2.278833107091067e-06,0.0
2.350000122562051,-2.0567327396747714e-07,0.0,-2.6242582862323616e-06,0.0,0.6992939114570618,1.0,-1.5271214883878881e-06,1.5645592335604502e-06,-1.6864268714605905e-06,-2.767335726390253e-07,0.00013067916544573532,0.0,-2.6653298050325e-08,2.730670996810882e-08,-2.9433701501094495e-08,-4.829911993357885e-09,2.2807817007864844e-06,0.0
2.383333457633853,-2.0144697998603078e-07,0.0,-2.574330665083835e-06,0.0,0.7004310488700867,1.0,-1.323266483456171e-06,1.7742972429076117e-06,-2.827989662209364e-07,-1.227848596060993e-07,0.00013020926162677715,0.0,-2.309535701759726e-08,3.096732879779543e-08,-4.935773081791566e-09,-2.143000071725421e-09,2.2725803319779694e-06,0.0
2.416666792705655,-1.9821844432499347e-07,0.0,-2.525781383155845e-06,0.0,0.7015302777290344,1.0,-9.832536300735058e-07,1.9680814828129596e-06,2.565769734242601e-06,-2.2314128479746807e-07,0.00012910869401062193,0.0,-1.716101322696901e-08,3.434950182261834e-08,4.478112971055328e-08,-3.894550116846186e-09,2.2533718034352354e-06,0.0
2.4500001277774572,-1.9296686559755472e-07,0.0,-2.4766366095718695e-06,0.0,0.702594518661499,1.0,-7.528621405076458e-07,2.151724640121003e-06,-3.2088926356104083e-06,-2.768204727493574e-07,0.00012769599934506955,0.0,-1.3139923165470594e-08,3.755467956640158e-08,-5.6005741834400264e-08,-4.831428686403526e-09,2.228715630195986e-06,0.0
2.4833334628492594,-1.8970268911289168e-07,0.0,-2.4278820092149545e-06,0.0,0.7036265134811401,1.0,-4.0974623992109024e-07,2.323527492284914e-06,3.0702272399927557e-06,-1.5871701014875303e-07,0.00012683859097975417,0.0,-7.151420984289655e-09,4.0553205000978894e-08,5.358557412229171e-08,-2.7701344060169953e-09,2.2137510311870903e-06,0.0
2.5166667979210615,-1.84990753382408e-07,0.0,-2.3777665774105117e-06,0.0,0.7046283483505249,1.0,-1.0718125126712626e-07,2.48377830216364e-06,-1.1387282260036839e-06,-3.6363305306000005e-07,0.00012609090070127865,0.0,-1.8706657310186977e-09,4.335010926235012e-08,-1.9874556829158393e-08,-6.346594044976242e-09,2.2007013740425393e-06,0.0
2.5500001329928637,-1.816839727553088e-07,0.0,-2.32806974054256e-06,0.0,0.70560222864151,1.0,2.408298298679925e-07,2.631060606039779e-06,-7.813483031240756e-07,-2.221081738326886e-07,0.00012533646213612953,0.0,4.20327346821425e-09,4.592067039491155e-08,-1.3637100494385815e-08,-3.876518928972329e-09,2.1875339370766654e-06,0.0
2.583333468064666,-1.768155470927013e-07,0.0,-2.2794417873228667e-06,0.0,0.7065509557723999,1.0,5.844539765305829e-07,2.7586006130244277e-06,3.2720764687752416e-06,-3.048545123101151e-07,0.00012408486615353686,0.0,1.0200646216832338e-08,4.814666344481023e-08,5.7108507757157395e-08,-5.320714979373093e-09,2.1656894662756897e-06,0.0
2.616666803136468,-1.7141536545750569e-07,0.0,-2.2307301605906105e-06,0.0,0.707476019859314,1.0,7.079607516432781e-07,2.874630656568557e-06,-3.0700366103916463e-06,-4.061539899230789e-07,0.00012285217309487384,0.0,1.2356246091069057e-08,5.017176973588768e-08,-5.3582247008100585e-08,-7.088724394269598e-09,2.1441749137355406e-06,0.0
2.65000013820827,-1.6810956537938182e-07,0.0,-2.1816920252604177e-06,0.0,0.7083791494369507,1.0,9.67714487118793e-07,2.98705516223773e-06,2.7125683616212495e-06,-2.684176515292495e-07,0.0001220477218022732,0.0,1.688980401947119e-08,5.2133947519741774e-08,4.734324909571899e-08,-4.684771789656196e-09,2.130134590007735e-06,0.0
2.683333473280072,-1.6353226328646997e-07,0.0,-2.132047029590467e-06,0.0,0.7092622518539429,1.0,1.0972970368446844e-06,3.088905817465834e-06,-1.2202647891500136e-07,-4.797712307134739e-07,0.00012169725457495764,0.0,1.9151446165317274e-08,5.391157679878577e-08,-2.1297638316822114e-09,-8.373587632295464e-09,2.124017782970743e-06,0.0
2.7166668083518744,-1.5934810448925418e-07,0.0,-2.0834932001889683e-06,0.0,0.7101268172264099,1.0,1.2726743199500919e-06,3.18411098390683e-06,-1.5885452120136546e-06,-3.7871642635387035e-07,0.00012154629128619368,0.0,2.2212357188708858e-08,5.557322041809036e-08,-2.7725344266429653e-08,-6.609848571261662e-09,2.1213829765321732e-06,0.0
2.7500001434236765,-1.5528340213677438e-07,0.0,-2.0349777969386196e-06,0.0,0.710974395275116,1.0,1.3872917599040121e-06,3.269819166116511e-06,3.5133513877214362e-06,-4.1064333826232495e-07,0.00012163044933213095,0.0,2.4212808896111666e-08,5.706911039354852e-08,6.131954949525094e-08,-7.1670783040583804e-09,2.122851811525823e-06,0.0
2.7833334784954786,-1.50389922737304e-07,0.0,-1.9879648789355997e-06,0.0,0.7118059992790222,1.0,1.4168312087815406e-06,3.3494696185999437e-06,-3.3134011846417553e-06,-5.439744209515551e-07,0.00012150822475599709,0.0,2.472836953824908e-08,5.845927304008772e-08,-5.78297601114792e-08,-9.494144692234262e-09,2.1207185902454326e-06,0.0
2.8166668135672808,-1.455903628766464e-07,0.0,-1.939311459864257e-06,0.0,0.7126230001449585,1.0,1.6235389736853011e-06,3.4320703516402276e-06,1.5907573380671931e-06,-3.697511780380479e-07,0.00012117095452641382,0.0,2.833610062525808e-08,5.990092779620154e-08,2.776395314953305e-08,-6.453375469891683e-09,2.1148321142702474e-06,0.0
2.850000148639083,-1.4119105173904245e-07,0.0,-1.8917237412097165e-06,0.0,0.7134263515472412,1.0,1.6168050238880762e-06,3.501395173298512e-06,5.06033398324599e-07,-5.489573263399149e-07,0.00012092469469602648,0.0,2.82185710296325e-08,6.111087418749648e-08,8.83194892582021e-09,-9.581112797576508e-09,2.1105340694145855e-06,0.0
2.883333483710885,-1.3603246884485998e-07,0.0,-1.844823373176041e-06,0.0,0.7142171859741211,1.0,1.5975047519904328e-06,3.5725474279039547e-06,-2.828078644933829e-06,-4.803501653533137e-07,0.00012082294946853379,0.0,2.788171773848849e-08,6.235271530057875e-08,-4.9359283859434965e-08,-8.383691947914515e-09,2.1087582801966475e-06,0.0
2.916666818782687,-1.3246196317595604e-07,0.0,-1.7967253143069684e-06,0.0,0.7149966955184937,1.0,1.683782693920714e-06,3.646220164877678e-06,3.3863467075610037e-06,-4.3721991103895805e-07,0.00012044512449533016,0.0,2.938755189701637e-08,6.363854712972598e-08,5.9102899661009074e-08,-7.63092700290652e-09,2.102163990417985e-06,0.0
2.9500001538544893,-1.279646824059455e-07,0.0,-1.7499438627055497e-06,0.0,0.715765118598938,1.0,1.7802715381154982e-06,3.7132913858317627e-06,-2.9433683844325714e-06,-5.979449998166101e-07,0.00011995253963210612,0.0,3.107159991965917e-08,6.480916076870738e-08,-5.137146940745458e-08,-1.0436108992636736e-08,2.0935667627092394e-06,0.0
2.9833334889262915,-1.233822075619173e-07,0.0,-1.704286319181847e-06,0.0,0.7165235280990601,1.0,1.9622126691175124e-06,3.7717133792913e-06,3.3490970788467866e-07,-4.1063790782397947e-07,0.00011904775014377976,0.0,3.4247071700446645e-08,6.58288169101549e-08,5.845277099480056e-09,-7.166983525029425e-09,2.0777752071005096e-06,0.0
3.0166668239980936,-1.199181980382491e-07,0.0,-1.658327846598695e-06,0.0,0.7172730565071106,1.0,2.1467132745236737e-06,3.821397613934592e-06,1.4596417564345398e-06,-5.415475391251175e-07,0.0001181821344743903,0.0,3.746721473670701e-08,6.669597039101377e-08,2.5475554549375848e-08,-9.451787613806112e-09,2.062667363612809e-06,0.0
3.0500001590698957,-1.1486562812024204e-07,0.0,-1.6119032579808845e-06,0.0,0.7180138826370239,1.0,2.1423785399179777e-06,3.867760171076486e-06,-3.3038691795299995e-06,-5.316808757986539e-07,0.00011793255254453478,0.0,3.7391559345637475e-08,6.750514966278383e-08,-5.766339523796213e-08,-9.279581852573547e-09,2.0583113371833485e-06,0.0
3.083333494141698,-1.1064619798162312e-07,0.0,-1.5676474731662893e-06,0.0,0.7187468409538269,1.0,2.3606413281996066e-06,3.907247682121587e-06,3.2185430351519252e-06,-4.389737865894421e-07,0.00011798466288050795,0.0,4.1200963635735196e-08,6.819433674393847e-08,5.6174173080532686e-08,-7.661537905932694e-09,2.0592208341204008e-06,0.0
3.1166668292135,-1.0666479255405648e-07,0.0,-1.5233122212521266e-06,0.0,0.7194725275039673,1.0,2.4830596551045936e-06,3.93542358391824e-06,-1.866897581695781e-06,-6.284666579046382e-07,0.00011841329528884236,0.0,4.3337566505009985e-08,6.868609900000865e-08,-3.25835095981112e-08,-1.0968812419440784e-08,2.066701880926589e-06,0.0
3.150000164285302,-1.0133156536085153e-07,0.0,-1.4784179711568868e-06,0.0,0.7201913595199585,1.0,2.612561668815832e-06,3.96338054274527e-06,-4.785999742122771e-07,-4.702463852123922e-07,0.00011957532689947722,0.0,4.5597803032233934e-08,6.917403998038483e-08,-8.35314534996419e-09,-8.207347717557819e-09,2.08698315854442e-06,0.0
3.1833334993571043,-9.80380434612016e-08,0.0,-1.4350440551424981e-06,0.0,0.7209035158157349,1.0,2.640296954808029e-06,3.978323434850841e-06,2.456168712713963e-06,-5.658994289526906e-07,0.00012078245993301284,0.0,4.608187509178003e-08,6.94348426473973e-08,4.286823102132936e-08,-9.876808270380176e-09,2.108051604489204e-06,0.0
3.2166668344289064,-9.320953608948912e-08,0.0,-1.3919916455051862e-06,0.0,0.7216099500656128,1.0,2.513745145805444e-06,3.996079772371871e-06,-3.8080318440867985e-06,-6.15703877254945e-07,0.00012212777600271906,0.0,4.3873129350329925e-08,6.974474920023468e-08,-6.646269370010599e-08,-1.0746059875393817e-08,2.131531799385567e-06,0.0
3.2500001695007086,-8.992025612997168e-08,0.0,-1.3478716027748305e-06,0.0,0.7223107814788818,1.0,2.706372471622896e-06,4.021003775610447e-06,2.3860913480298074e-06,-4.5992471561592727e-07,0.00012321323177319013,0.0,4.723511041515634e-08,7.017975511952557e-08,4.1645150276470053e-08,-8.027200598796511e-09,2.150476576465059e-06,0.0
3.2833335045725107,-8.519624827840744e-08,0.0,-1.3075637070869561e-06,0.0,0.7230060696601868,1.0,2.7969181663122798e-06,4.022556761028375e-06,-8.874081148607808e-07,-6.496099164729748e-07,0.00012409854504476264,0.0,4.8815430910991626e-08,7.020685982830386e-08,-1.5488193413236645e-08,-1.133783189605876e-08,2.1659282079656017e-06,0.0
3.316666839644313,-8.137013196574117e-08,0.0,-1.2647096809814684e-06,0.0,0.7236965894699097,1.0,2.864892747025196e-06,4.031681822121691e-06,-1.7529882719551666e-06,-5.179332093556729e-07,0.00012468630908506583,0.0,5.0001811152094655e-08,7.036612218882787e-08,-3.059541709446343e-08,-9.03963980867759e-09,2.176186625693717e-06,0.0
3.350000174716115,-7.782010413848184e-08,0.0,-1.224151446876931e-06,0.0,0.7243831157684326,1.0,3.0066847628385854e-06,4.02856041990906e-06,3.0441427537959795e-06,-5.449592508919345e-07,0.00012503547365680736,0.0,5.2476548681078165e-08,7.031164344293841e-08,5.313031395446695e-08,-9.511333217266102e-09,2.182280697101923e-06,0.0
3.383333509787917,-7.293110115824675e-08,0.0,-1.183605718324543e-06,0.0,0.7250648736953735,1.0,2.979666579127001e-06,4.0211155650891044e-06,-3.5398911984654444e-06,-6.547779699099301e-07,0.0001250040640570759,0.0,5.200499241740232e-08,7.018170621399723e-08,-6.178275657559005e-08,-1.142803144445264e-08,2.1817324961698754e-06,0.0
3.4166668448597193,-6.92062016582895e-08,0.0,-1.143594090535771e-06,0.0,0.7257426977157593,1.0,3.1070138893374896e-06,4.014769962688146e-06,1.4479012487411536e-06,-4.729529228184526e-07,0.00012431580558997256,0.0,5.4227622274133934e-08,7.007095455907803e-08,2.5270644034270534e-08,-8.254585710112618e-09,2.169720119814193e-06,0.0
3.4500001799315214,-6.548156505914449e-08,0.0,-1.1043848644476384e-06,0.0,0.7264166474342346,1.0,3.151714609762818e-06,3.996604983391774e-06,7.286759302876203e-08,-6.431256658090716e-07,0.00012359359715386357,0.0,5.5007797023569397e-08,6.975391586179975e-08,1.2717794163551645e-09,-1.1224660372449021e-08,2.157115204718412e-06,0.0
3.4833335150033236,-6.1974532172826e-08,0.0,-1.0653174058461445e-06,0.0,0.7270874977111816,1.0,3.140674499469297e-06,3.9814522510203275e-06,-3.041174226255819e-06,-5.499690727149808e-07,0.00012255479310154956,0.0,5.4815110749164134e-08,6.948945079124447e-08,-5.307850337495502e-08,-9.598771103016524e-09,2.138984653722473e-06,0.0
3.5166668500751257,-5.8114224543714954e-08,0.0,-1.0269185395372915e-06,0.0,0.727754533290863,1.0,3.268036666474058e-06,3.960993570814633e-06,3.0042971808365587e-06,-4.997817178597659e-07,0.00012185880933385162,0.0,5.70379999058721e-08,6.913237946104252e-08,5.243487751398144e-08,-8.722836517926262e-09,2.1268374454357086e-06,0.0
3.550000185146928,-5.406254643958164e-08,0.0,-9.896846222545719e-07,0.0,0.7284182906150818,1.0,3.1780354112706835e-06,3.9328272818162035e-06,-3.1358816893184745e-06,-6.42249864393014e-07,0.00012147387105543653,0.0,5.5467181671645535e-08,6.864078497995167e-08,-5.4731460431609274e-08,-1.1209374754145187e-08,2.1201190050604066e-06,0.0
3.58333352021873,-5.142298675764323e-08,0.0,-9.520828143649851e-07,0.0,0.7290791273117065,1.0,3.0956077880443523e-06,3.912239186466718e-06,4.5221876340323736e-07,-4.4648632518360724e-07,0.00012177448191645218,0.0,5.4028548251752706e-08,6.82814549293886e-08,7.892706360683729e-09,-7.792656439584022e-09,2.125365654352385e-06,0.0
3.616666855290532,-4.760999061659277e-08,0.0,-9.163343293039361e-07,0.0,0.7297369837760925,1.0,3.1055868936420986e-06,3.8869314593677934e-06,1.4051118026843443e-06,-5.841140269575664e-07,0.00012225883329720612,0.0,5.420271650083757e-08,6.783975176531619e-08,2.4523827315474704e-08,-1.019471297749245e-08,2.133819180683122e-06,0.0
3.6500001903623343,-4.374059514589135e-08,0.0,-8.789798471298127e-07,0.0,0.7303919792175293,1.0,3.0015303400666402e-06,3.869184082659212e-06,-3.5484807916055607e-06,-5.633295700911047e-07,0.00012249644268665696,0.0,5.2386587032667945e-08,6.753000160815968e-08,-6.19326732572918e-08,-9.83195577193395e-09,2.1379662468626923e-06,0.0
3.6833335254341364,-3.974590967459335e-08,0.0,-8.443497563348501e-07,0.0,0.7310442328453064,1.0,3.124974674013259e-06,3.8450172428225555e-06,3.053819315408309e-06,-4.602820511672745e-07,0.00012249270395546573,0.0,5.454109710296785e-08,6.71082106832079e-08,5.329920181487419e-08,-8.03343728070195e-09,2.1379009936935586e-06,0.0
3.7166668605059385,-3.6732409114392794e-08,0.0,-8.106063091872784e-07,0.0,0.7316941618919373,1.0,3.1410242397244093e-06,3.811735840475768e-06,-2.075684410980048e-06,-6.40007438390423e-07,0.00012161073854656248,0.0,5.482121486814261e-08,6.65273406325755e-08,-3.6227527203920975e-08,-1.1170237037167638e-08,2.122507793419499e-06,0.0
3.7500001955777407,-3.267379966587214e-08,0.0,-7.764796237097471e-07,0.0,0.7323415279388428,1.0,3.0825448041362974e-06,3.780760644697848e-06,-7.205470496011621e-07,-4.674308983432135e-07,0.000119918654995763,0.0,5.380055617242211e-08,6.598672147980094e-08,-1.2575918431071172e-08,-8.158208201643983e-09,2.092975364239211e-06,0.0
3.783333530649543,-3.007528448506491e-08,0.0,-7.425516628245532e-07,0.0,0.7329864501953125,1.0,3.0746393384862193e-06,3.7518319770567614e-06,2.4527882950190723e-06,-5.492752915661506e-07,0.00011783126345550672,0.0,5.366257976792493e-08,6.548182098124884e-08,4.280923160246084e-08,-9.586662337681169e-09,2.056543509083463e-06,0.0
3.816666865721345,-2.6328315527734958e-08,0.0,-7.098681180650601e-07,0.0,0.733629047870636,1.0,3.0143639104943247e-06,3.7204386371982843e-06,-3.7465429803707536e-06,-6.001106372597642e-07,0.00011581130227471495,0.0,5.261057509141762e-08,6.493390383752084e-08,-6.538951057495093e-08,-1.0473906496424245e-08,2.0212885357161745e-06,0.0
3.850000200793147,-2.3793027992269344e-08,0.0,-6.778789725103707e-07,0.0,0.7342697381973267,1.0,3.0106529262881457e-06,3.6884511210855672e-06,2.5668517960640048e-06,-4.440757656159234e-07,0.00011428146398469586,0.0,5.2545806198530286e-08,6.437561636181919e-08,4.480001525204691e-08,-7.750584238312487e-09,1.9945878205322613e-06,0.0
3.8833335358649492,-2.0501492059565862e-08,0.0,-6.464331931965717e-07,0.0,0.7349082827568054,1.0,2.8826112823697165e-06,3.6560710863475007e-06,-6.519980630700169e-07,-6.41375462495621e-07,0.00011234233884443634,0.0,5.031105793248752e-08,6.381047814372979e-08,-1.1379512917197444e-08,-1.1194113562049995e-08,1.960743702226536e-06,0.0
3.9166668709367514,-1.6288600690472776e-08,0.0,-6.15331941844488e-07,0.0,0.7355446815490723,1.0,2.8222490603594168e-06,3.629065787092756e-06,-1.7987001314881537e-06,-5.196436399761991e-07,0.0001105134919875895,0.0,4.9257538414588e-08,6.333914675624812e-08,-3.1393239550523216e-08,-9.069492454632702e-09,1.9288243030598092e-06,0.0
3.9500002060085535,-1.4236408496515196e-08,0.0,-5.843241410730116e-07,0.0,0.736179530620575,1.0,2.7727201285870674e-06,3.603172101607574e-06,3.3031586124437485e-06,-5.397625169721819e-07,0.00010891337001289639,0.0,4.8393095480164875e-08,6.288721668905584e-08,5.765099350275075e-08,-9.42063310001635e-09,1.9008969061679009e-06,0.0
3.9833335410803556,-1.0677027262318006e-08,0.0,-5.531618398890714e-07,0.0,0.7368118166923523,1.0,2.6219363084274046e-06,3.582448695769433e-06,-3.251569309714227e-06,-6.603179143541771e-07,0.00010752323886994502,0.0,4.576142135964376e-08,6.252552502495326e-08,-5.67505903113125e-08,-1.1524721715382316e-08,1.8766345406888875e-06,0.0
4.016666876152158,-7.575737370757452e-09,0.0,-5.246542968961876e-07,0.0,0.7374420762062073,1.0,2.82817646442241e-06,3.557139867942143e-06,1.7235760979717318e-06,-4.856751968652292e-07,0.00010595476081171203,0.0,4.936099113158332e-08,6.208380264954668e-08,3.008207781828308e-08,-8.476631280569892e-09,1.8492594343274346e-06,0.0
4.05000021122396,-5.5716737890065815e-09,0.0,-4.956440875503176e-07,0.0,0.7380708456039429,1.0,2.844023003972853e-06,3.520843684468527e-06,5.749529474277255e-07,-6.660895232529385e-07,0.00010430743334994268,0.0,4.963756542178605e-08,6.145031474202413e-08,1.0034821976659673e-08,-1.1625455293803108e-08,1.8205081462610385e-06,0.0
4.083333546295762,-1.0463603317134584e-09,0.0,-4.65382470338227e-07,0.0,0.7386975884437561,1.0,2.6443096584249767e-06,3.4955846960618186e-06,-2.9901864606537114e-06,-5.98259341810359e-07,0.00010306940546113136,0.0,4.6151909981802456e-08,6.1009462228604e-08,-5.218859898696314e-08,-1.0441595295404937e-08,1.7989004833697665e-06,0.0
4.116666881367564,1.2295680029694722e-09,0.0,-4.387660510474234e-07,0.0,0.7393226623535156,1.0,2.7188585240928207e-06,3.4625783266075886e-06,3.2811159976566345e-06,-5.401662137564667e-07,0.00010235875264772986,0.0,4.745303314133329e-08,6.0433392407498e-08,5.726627729896682e-08,-9.42767893808183e-09,1.7864972519373496e-06,0.0
4.150000216439366,4.3234131830161004e-09,0.0,-4.109288056497462e-07,0.0,0.7399458885192871,1.0,2.6462382401667977e-06,3.43208870366703e-06,-2.6870576916066077e-06,-6.991612960509244e-07,0.00010188194410553295,0.0,4.6185570083091076e-08,5.990124809949366e-08,-4.68980039095737e-08,-1.2202666618599459e-08,1.778175372974379e-06,0.0
4.1833335515111685,7.890205822036478e-09,0.0,-3.840232523089071e-07,0.0,0.7405676245689392,1.0,2.7879972321825487e-06,3.4028821875134484e-06,3.9336450568308253e-07,-5.195467733247101e-07,0.00010181311962006956,0.0,4.8659731238074284e-08,5.9391498229576745e-08,6.865505784649736e-09,-9.067801812628838e-09,1.7769741590970518e-06,0.0
4.216666886582971,1.0289779694971912e-08,0.0,-3.5734939274334465e-07,0.0,0.7411872744560242,1.0,2.939601330916707e-06,3.3622622554835516e-06,1.5706283559928618e-06,-6.5002217055419e-07,0.00010221625724666569,0.0,5.130572192050392e-08,5.868254667371874e-08,2.741263613726105e-08,-1.134502708713075e-08,1.78401023801983e-06,0.0
4.250000221654773,1.4386420055245708e-08,0.0,-3.317934726965177e-07,0.0,0.7418055534362793,1.0,2.8831916881008394e-06,3.314752326157374e-06,-3.616691595038522e-06,-6.408744414921479e-07,0.00010190931496328663,0.0,5.0321187923493064e-08,5.785334197958713e-08,-6.312317636262762e-08,-1.118536909591774e-08,1.7786530845612759e-06,0.0
4.283333556726575,1.6104300115671322e-08,0.0,-3.0583660759475606e-07,0.0,0.7424222230911255,1.0,2.9831196738015866e-06,3.2709079077662996e-06,2.973949927167389e-06,-5.210103729802687e-07,0.00010139283131986788,0.0,5.2065260288856916e-08,5.708811252004093e-08,5.1905218018516495e-08,-9.09334644554939e-09,1.7696387444509223e-06,0.0
4.316666891798377,2.01965484336597e-08,0.0,-2.8153905873296026e-07,0.0,0.7430371046066284,1.0,2.924295325300717e-06,3.2170990577716995e-06,-1.9435694127236545e-06,-7.069312528017963e-07,0.00010077668009462605,0.0,5.103858172717615e-08,5.614897092092343e-08,-3.3921685493080345e-08,-1.2338277946639734e-08,1.7588848768802553e-06,0.0
4.350000226870179,2.243826990877551e-08,0.0,-2.5722684426909836e-07,0.0,0.743650496006012,1.0,2.9548532432294335e-06,3.168658939596602e-06,-1.0680652065139976e-06,-5.295527113542309e-07,0.00010002161623174735,0.0,5.157191800758646e-08,5.530353136871282e-08,-1.8641254479662446e-08,-9.242438375994489e-09,1.7457065264101948e-06,0.0
4.383333561941981,2.5140394654954434e-08,0.0,-2.3313485542075796e-07,0.0,0.7442623972892761,1.0,2.8665230221818168e-06,3.1148569878376706e-06,2.4836752505099518e-06,-5.989803482987344e-07,9.978966075849782e-05,0.0,5.003026482129115e-08,5.436451016652032e-08,4.334831067169363e-08,-1.045417923255533e-08,1.741658139683969e-06,0.0
4.4166668970137835,2.846749147522587e-08,0.0,-2.1133187999566871e-07,0.0,0.7448724508285522,1.0,2.550347116762174e-06,3.0636025354929844e-06,-3.88764439527768e-06,-6.522860687707867e-07,0.00010027379049635097,0.0,4.45119542562442e-08,5.346995121679902e-08,-6.785219484429942e-08,-1.138453956494039e-08,1.7501077976163236e-06,0.0
4.450000232085586,3.044210927782842e-08,0.0,-1.8719597960625833e-07,0.0,0.7454812526702881,1.0,2.6187220973944124e-06,3.030471337835849e-06,2.2494070949210574e-06,-4.824558434885724e-07,0.00010026551813877488,0.0,4.570532279426411e-08,5.289170273255297e-08,3.925956002409307e-08,-8.420442964362033e-09,1.7499634177397183e-06,0.0
4.483333567157388,3.380195678914788e-08,0.0,-1.6525871160411043e-07,0.0,0.746088445186615,1.0,2.59446316120303e-06,2.985164256477114e-06,-7.846966518778128e-07,-6.695490968680038e-07,9.988665080305808e-05,0.0,4.528192448469328e-08,5.21009449883741e-08,-1.3695540204643577e-08,-1.168583624410112e-08,1.7433509353032015e-06,0.0
4.51666690222919,3.6964497240887795e-08,0.0,-1.4355536848142947e-07,0.0,0.7466940879821777,1.0,2.414745913400163e-06,2.9433530960332225e-06,-2.3641088853587874e-06,-5.339684716079748e-07,9.878862355276874e-05,0.0,4.21452667879107e-08,5.137120257454858e-08,-4.126148392516401e-08,-9.31950793140102e-09,1.7241867445090326e-06,0.0
4.550000237300992,3.828823835760886e-08,0.0,-1.2224535339555587e-07,0.0,0.7472981810569763,1.0,2.285397996178409e-06,2.9078631384797587e-06,3.1064198590038626e-06,-5.258397885592751e-07,9.752663819091808e-05,0.0,3.988771975179402e-08,5.075178596384761e-08,5.4217254488955423e-08,-9.17763564835016e-09,1.7021609448327666e-06,0.0
4.583333572372794,4.081565307956225e-08,0.0,-1.0195410027336038e-07,0.0,0.7479009032249451,1.0,2.15825134061264e-06,2.8752933974801134e-06,-3.368742542315883e-06,-6.417756534786114e-07,9.65915920362655e-05,0.0,3.766859197927218e-08,5.018333674688201e-08,-5.8795649015416565e-08,-1.1201098212339968e-08,1.685841310775967e-06,0.0
4.616666907444596,4.2766277630335026e-08,0.0,-8.173250876097882e-08,0.0,0.7485019564628601,1.0,2.206204828506507e-06,2.8473400177515995e-06,1.345143496540764e-06,-4.551491316148936e-07,9.497069759506913e-05,0.0,3.8505538230835397e-08,4.96954582335592e-08,2.3477182926425283e-08,-7.943850934272909e-09,1.6575513659498169e-06,0.0
4.650000242516398,4.537072584298585e-08,0.0,-6.121800311120751e-08,0.0,0.7491016387939453,1.0,2.0184725053523152e-06,2.816098157587418e-06,6.116203468068926e-07,-6.240518447231142e-07,9.319311416802012e-05,0.0,3.5228991079376766e-08,4.9150184909246583e-08,1.0674788823969863e-08,-1.0891759393562745e-08,1.626526682418927e-06,0.0
4.683333577588201,4.741615455827741e-08,0.0,-4.102180994891569e-08,0.0,0.7496996521949768,1.0,1.9320497231356667e-06,2.7974880178088758e-06,-3.2613154377071704e-06,-5.526558722512597e-07,9.114055163701696e-05,0.0,3.3720628980962245e-08,4.882537669585465e-08,-5.692069233411015e-08,-9.645664601265647e-09,1.5907027081498538e-06,0.0
4.716666912660003,4.9753058561918806e-08,0.0,-2.2166142699120428e-08,0.0,0.7502961158752441,1.0,2.1639992320909617e-06,2.771735128974045e-06,3.290900238960395e-06,-4.778684659059189e-07,8.871265248894764e-05,0.0,3.776891161061622e-08,4.837590399378677e-08,5.7437044524527066e-08,-8.340378121512551e-09,1.5483278741096787e-06,0.0
4.750000247731805,5.260297442077899e-08,0.0,-4.050436874791785e-09,0.0,0.7508914470672607,1.0,1.944266909602848e-06,2.7358447922915026e-06,-2.6494676331182848e-06,-6.445009613833147e-07,8.625457479249383e-05,0.0,3.393385911014465e-08,4.77494994490271e-08,-4.624193362293523e-08,-1.124866380840767e-08,1.505426325036722e-06,0.0
4.783333582803607,5.487479270982476e-08,0.0,1.512530545255686e-08,0.0,0.7514853477478027,1.0,1.987601393260102e-06,2.715808197094897e-06,2.3528614069566983e-09,-4.5377841845653314e-07,8.383618568522719e-05,0.0,3.4690188529615406e-08,4.739979489195705e-08,4.10651783945006e-11,-7.919927476559108e-09,1.4632174725205529e-06,0.0
4.816666917875409,5.6520168101314994e-08,0.0,3.2718833864464614e-08,0.0,0.7520776987075806,1.0,1.9329748327376972e-06,2.6839521007337744e-06,1.7186374520136885e-06,-5.674324313118821e-07,8.157915582068239e-05,0.0,3.3736775189459496e-08,4.6843801123622876e-08,2.999588218572491e-08,-9.90356420898891e-09,1.4238248700684045e-06,0.0
4.850000252947211,5.907818589889757e-08,0.0,5.078145903780751e-08,0.0,0.7526689171791077,1.0,1.7576364083600676e-06,2.6618973598669456e-06,-3.7921485794645927e-06,-5.651607787157015e-07,7.964619922296952e-05,0.0,3.0676542378810766e-08,4.645887327982257e-08,-6.618547843648297e-08,-9.86391639172408e-09,1.3900884131401673e-06,0.0
4.883333588019013,5.964901106381149e-08,0.0,6.711917421853286e-08,0.0,0.7532582879066467,1.0,1.921104988672246e-06,2.638427699137632e-06,2.811801385216412e-06,-4.265680337479878e-07,7.832753748978327e-05,0.0,3.352960732881906e-08,4.604925042577003e-08,4.90751920841638e-08,-7.445016672660674e-09,1.3670734241760123e-06,0.0
4.9166669230908155,6.231513793863996e-08,0.0,8.483829816441357e-08,0.0,0.7538465261459351,1.0,1.7410755571891237e-06,2.611319592035264e-06,-1.7722970268929213e-06,-6.109429785690508e-07,7.717829889066421e-05,0.0,3.038750099894504e-08,4.557612470285045e-08,-3.0932418442587966e-08,-1.0662966517971091e-08,1.3470154267303777e-06,0.0
4.950000258162618,6.45402735699463e-08,0.0,1.0136441375152572e-07,0.0,0.7544333338737488,1.0,1.746795134416881e-06,2.592621752732725e-06,-1.3797447102769136e-06,-4.37661588942968e-07,7.601820842071241e-05,0.0,3.048732645339149e-08,4.524978584401235e-08,-2.4081088031307384e-08,-7.6386357365648e-09,1.3267680284087103e-06,0.0
4.98333359323442,6.606409641563005e-08,0.0,1.1797350651931993e-07,0.0,0.7550183534622192,1.0,1.9085634251004298e-06,2.567492093980358e-06,2.465693792177862e-06,-4.849058481362533e-07,7.511579647125976e-05,0.0,3.331071575114269e-08,4.481119055888093e-08,4.30344750194885e-08,-8.46320361215323e-09,1.3110179686814208e-06,0.0
5.016666928306222,6.715095679510341e-08,0.0,1.3310791757703555e-07,0.0,0.7556021809577942,1.0,1.7297188540773882e-06,2.5350058794697527e-06,-3.950666099696665e-06,-5.384959203824748e-07,7.405779630576601e-05,0.0,3.018928913747377e-08,4.4244199154161707e-08,-6.895213108662936e-08,-9.398526819231428e-09,1.29255238230691e-06,0.0
5.050000263378024,6.799209728569622e-08,0.0,1.4908154355453007e-07,0.0,0.7561849355697632,1.0,1.7808950549473407e-06,2.5127027693442607e-06,1.9072888549638464e-06,-3.548362413158518e-07,7.329469451053715e-05,0.0,3.108248234131643e-08,4.385493644903699e-08,3.328847030571171e-08,-6.19306071636275e-09,1.279233743452287e-06,0.0
5.083333598449826,7.01118310075799e-08,0.0,1.640738247488116e-07,0.0,0.7567662000656128,1.0,1.7083365174949396e-06,2.4828349322476405e-06,-5.800271331187851e-07,-5.301156950352763e-07,7.24642987680158e-05,0.0,2.981609696234041e-08,4.333364435125166e-08,-1.0123383223826245e-08,-9.252264294863728e-09,1.2647406036507461e-06,0.0
5.116666933521628,7.16607999606822e-08,0.0,1.7962079823519161e-07,0.0,0.7573460340499878,1.0,1.5547900126385835e-06,2.4634828312408876e-06,-2.3816003233259304e-06,-4.0331983790616086e-07,7.206940758887426e-05,0.0,2.7136204897667532e-08,4.299588647150531e-08,-4.1566767108598994e-08,-7.039259110072339e-09,1.2578484523876436e-06,0.0
5.1500002685934305,7.318418226986978e-08,0.0,1.941912444181071e-07,0.0,0.757924497127533,1.0,1.7038740021579935e-06,2.4413202886854666e-06,3.192042283096222e-06,-3.911725366741124e-07,7.20128550655262e-05,0.0,2.9738211376789953e-08,4.260907713329986e-08,5.571164770290601e-08,-6.82724870834153e-09,1.256861424654909e-06,0.0
5.183333603665233,7.436290871964957e-08,0.0,2.0683722823378048e-07,0.0,0.7585014700889587,1.0,1.5517327612510456e-06,2.4098590364150797e-06,-3.626485089305652e-06,-5.125206462545386e-07,7.146413447975663e-05,0.0,2.708284579489383e-08,4.2059974694381066e-08,-6.329410508286424e-08,-8.945172761590842e-09,1.247284443759758e-06,0.0
5.216666938737035,7.591407324980537e-08,0.0,2.2227337126423663e-07,0.0,0.7590770721435547,1.0,1.6568379038975315e-06,2.3951367501258037e-06,5.784249300242617e-07,-3.0025263826318144e-07,7.081577281674561e-05,0.0,2.8917276594853314e-08,4.180302232521198e-08,1.0095419504541172e-08,-5.240397125492025e-09,1.2359683979965098e-06,0.0
5.250000273808837,7.671114587992633e-08,0.0,2.3617744204784685e-07,0.0,0.7596511840820312,1.0,1.680741168037354e-06,2.3662451273594e-06,4.93976565862222e-07,-4.3302510004566034e-07,7.025054641807597e-05,0.0,2.933446725606711e-08,4.1298768381694086e-08,8.621517501990396e-09,-7.55771373957462e-09,1.2261033363205347e-06,0.0
5.283333608880639,7.785963873629953e-08,0.0,2.499672291378374e-07,0.0,0.7602238655090332,1.0,1.661003655412608e-06,2.341134129924029e-06,-3.6176825770862105e-06,-3.574247568019884e-07,6.964695382027362e-05,0.0,2.8989982674611342e-08,4.086049879798701e-08,-6.314047226218794e-08,-6.238238834334696e-09,1.2155686581482177e-06,0.0
5.316666943952441,7.804196400229557e-08,0.0,2.625196202643565e-07,0.0,0.760795533657074,1.0,1.8618342191254107e-06,2.3087703567392246e-06,3.03077294112969e-06,-2.5617712194824787e-07,6.927179299394634e-05,0.0,3.2495137250035995e-08,4.029564439754352e-08,5.289696670306536e-08,-4.471134246279956e-09,1.209020866504304e-06,0.0
5.350000279024243,7.955311076557336e-08,0.0,2.750450107669167e-07,0.0,0.7613654732704163,1.0,1.6784708083829818e-06,2.2689877668436136e-06,-2.5451863085294385e-06,-4.157899706718743e-07,6.900003817321879e-05,0.0,2.9294842004893873e-08,3.960130721889448e-08,-4.4421881160518935e-08,-7.256903984994866e-09,1.2042778501244412e-06,0.0
5.3833336140960455,7.984564831531316e-08,0.0,2.8873105861748627e-07,0.0,0.7619342803955078,1.0,1.690422176632273e-06,2.2443102634392255e-06,-1.5627323975816686e-07,-2.218896185153434e-07,6.85370259834403e-05,0.0,2.9503432730962313e-08,3.91706035333158e-08,-2.727482566538519e-09,-3.872704419086914e-09,1.196196762935938e-06,0.0
5.416666949167848,7.984017003082045e-08,0.0,2.9951567626085307e-07,0.0,0.7625018358230591,1.0,1.770634229179843e-06,2.205153596137385e-06,2.0515361034154027e-06,-3.229570152353539e-07,6.813323053019543e-05,0.0,3.090339714770012e-08,3.8487190764790674e-08,3.580605972813366e-08,-5.6366632582704145e-09,1.189149202772232e-06,0.0
5.45000028423965,8.085572744676028e-08,0.0,3.1121226129471324e-07,0.0,0.7630678415298462,1.0,1.6471561929764685e-06,2.1701255448009722e-06,-3.6690334955666633e-06,-3.352265802353987e-07,6.832577766395121e-05,0.0,2.874829886205447e-08,3.787583593841268e-08,-6.403671486359505e-08,-5.850807565308655e-09,1.1925097842215484e-06,0.0
5.483333619311452,8.143130969529011e-08,0.0,3.231799041714112e-07,0.0,0.7636324763298035,1.0,1.836282520339401e-06,2.1379158245247595e-06,2.726301769468589e-06,-1.939636037186411e-07,6.897397663646052e-05,0.0,3.204917597674229e-08,3.7313670268446386e-08,4.758294228017429e-08,-3.385303513923804e-09,1.20382299049988e-06,0.0
5.516666954383254,8.212482072167404e-08,0.0,3.349032624555548e-07,0.0,0.7641957998275757,1.0,1.7043205533353004e-06,2.096281231584904e-06,-1.4793404191434723e-06,-3.727759944120234e-07,6.920298139316792e-05,0.0,2.9746005165112614e-08,3.658700953891833e-08,-2.5819361071886545e-08,-6.506168474885792e-09,1.2078198775071528e-06,0.0
5.550000289455056,8.127285155978825e-08,0.0,3.450758470080473e-07,0.0,0.7647579312324524,1.0,1.6520988527685866e-06,2.0606664000748024e-06,-1.5465520785015076e-06,-2.02112906111507e-07,6.960604082343638e-05,0.0,2.8834564549232872e-08,3.596541346652403e-08,-2.699242582341312e-08,-3.5275356724199665e-09,1.21485459164655e-06,0.0
5.583333624526858,8.22317645088333e-08,0.0,3.5544624665817537e-07,0.0,0.7653186917304993,1.0,1.739223021314389e-06,2.0225522842939514e-06,2.739842320867056e-06,-2.3823175489300047e-07,7.02164077524637e-05,0.0,3.0355168148419605e-08,3.530019665466185e-08,4.781926948461307e-08,-4.1579285056869696e-09,1.2255075042033632e-06,0.0
5.6166669595986605,8.329470091439362e-08,0.0,3.653854605545348e-07,0.0,0.7658781409263611,1.0,1.5939679874224159e-06,1.9821601254617604e-06,-3.834564012089003e-06,-3.099997025263886e-07,7.04948715810125e-05,0.0,2.781998955190872e-08,3.4595220491051605e-08,-6.692576738943674e-08,-5.410515489288465e-09,1.2303676148592486e-06,0.0
5.650000294670463,8.325147859977733e-08,0.0,3.7471528457899694e-07,0.0,0.7664361596107483,1.0,1.6655174383341299e-06,1.9465084153080113e-06,1.7822981546193722e-06,-1.203010448301494e-07,7.069878541754893e-05,0.0,2.9068763048312186e-08,3.397298076490199e-08,3.110697105032703e-08,-2.0996493258754095e-09,1.2339265826971829e-06,0.0
5.683333629742265,8.376527205200546e-08,0.0,3.850701375540666e-07,0.0,0.7669928073883057,1.0,1.5626600229749658e-06,1.908543881261884e-06,-3.7204932975462944e-07,-2.8851364360879833e-07,7.104983882964876e-05,0.0,2.7273562490203387e-08,3.331037464681158e-08,-6.493485784056391e-09,-5.035513017899025e-09,1.2400536205886852e-06,0.0
5.716666964814067,8.35385733921612e-08,0.0,3.93398295273073e-07,0.0,0.7675480842590332,1.0,1.5347975093467732e-06,1.8718779420971139e-06,-2.7169620602464675e-06,-1.6291256023535852e-07,7.152965005135806e-05,0.0,2.6787269889509638e-08,3.2670433285050406e-08,-4.74199336030694e-08,-2.8433605689605945e-09,1.2484279061955293e-06,0.0
5.750000299885869,8.30907183058116e-08,0.0,4.0272138335240015e-07,0.0,0.7681020498275757,1.0,1.6942979042448773e-06,1.8369370707009932e-06,3.147493560045166e-06,-1.2321181667581122e-07,7.183105557678567e-05,0.0,2.9571076938712718e-08,3.2060600035672194e-08,5.493412580810599e-08,-2.1504518783565603e-09,1.2536884249979445e-06,0.0
5.783333634957671,8.362909653669703e-08,0.0,4.103529533949768e-07,0.0,0.7686547040939331,1.0,1.5716746208981052e-06,1.7891962739408373e-06,-3.2201278751810612e-06,-2.4868601170719476e-07,7.194907859320288e-05,0.0,2.7430896904705613e-08,3.122736594468203e-08,-5.6201833757158515e-08,-4.340389707943713e-09,1.25574831522756e-06,0.0
5.816666970029473,8.32520541393933e-08,0.0,4.2016654333565384e-07,0.0,0.7692062258720398,1.0,1.6542402799848722e-06,1.7576709596387462e-06,9.78547657056885e-07,-4.639172551705809e-08,7.150453298166598e-05,0.0,2.887193950484887e-08,3.067714541238448e-08,1.707887850331897e-08,-8.096883559541325e-10,1.2479895306309494e-06,0.0
5.850000305101275,8.303379672724986e-08,0.0,4.2762317775668635e-07,0.0,0.7697564363479614,1.0,1.6587248221297207e-06,1.7092579003512566e-06,1.5043331512393432e-06,-1.985053468891428e-07,7.060405556923143e-05,0.0,2.895020953072093e-08,2.983217812685457e-08,2.6255566536028354e-08,-3.464571886029025e-09,1.2322732349441276e-06,0.0
5.883333640173078,8.354084712891563e-08,0.0,4.360333321073995e-07,0.0,0.7703050971031189,1.0,1.4594236943913548e-06,1.6707022383820225e-06,-2.89736284629947e-06,-1.7002479719339824e-07,6.957652688983305e-05,0.0,2.5471748648748643e-08,2.9159254880205472e-08,-5.0568521292880154e-08,-2.9674925210604134e-09,1.2143394763299566e-06,0.0
5.91666697524488,8.29093593779362e-08,0.0,4.4238294094611774e-07,0.0,0.7708526253700256,1.0,1.5429153391616653e-06,1.6305693939715635e-06,3.519529439153616e-06,-8.881951251331725e-08,6.857859043771142e-05,0.0,2.6928952747896066e-08,2.845880460705236e-08,6.142737683410002e-08,-1.5501929333736899e-09,1.1969221995147636e-06,0.0
5.950000310316682,8.403254270206162e-08,0.0,4.501827106651035e-07,0.0,0.7713988423347473,1.0,1.3197515339704906e-06,1.5912209763232284e-06,-1.9667715203834188e-06,-2.748827461868297e-07,6.749519960407887e-05,0.0,2.3034009576030853e-08,2.777204516363907e-08,-3.4326638665145424e-08,-4.797608977884066e-09,1.1780134623819495e-06,0.0
5.983333645388484,8.302763632173082e-08,0.0,4.5619643174177327e-07,0.0,0.7719436883926392,1.0,1.2360320686489365e-06,1.5587078245281142e-06,3.9172241844607696e-08,-9.709407460572112e-08,6.730052891798605e-05,0.0,2.157282925816052e-08,2.7204583614613622e-08,6.836845955759013e-10,-1.6946112860468486e-09,1.1746158179525134e-06,0.0
