time,x,x_target,y,y_target,z,z_target,roll_deg,roll_target_deg,pitch_deg,pitch_target_deg,yaw_deg,yaw_target_deg,roll_rad,roll_target_rad,pitch_rad,pitch_target_rad,yaw_rad,yaw_target_rad
0.01666666753590107,0.0,0.0,0.0,0.0,-0.002725000027567148,1.0,0.0,-0.0,0.0,0.0,0.0,0.0,0.0,-0.0,0.0,0.0,0.0,0.0
0.05000000260770321,2.999268611247885e-10,0.0,3.0079344570665967e-10,0.0,-0.0011550134513527155,1.0,-6.029355139097366e-10,1.1406560251035012e-09,2.5230320949982176e-08,1.0297206375154652e-10,5.646080773655987e-06,0.0,-1.0523209894928974e-11,1.990820327076719e-11,4.4035217191209254e-10,1.7972015500379909e-12,9.854269933384569e-08,0.0
0.08333333767950535,5.318407936272251e-10,0.0,2.25926222174877e-10,0.0,0.01118940394371748,1.0,2.041664430641774e-08,9.625947848259192e-10,3.636302943916567e-07,-1.662626788583195e-08,1.8750581613181754e-05,0.0,3.5633766535554365e-10,1.680044835773864e-11,6.34654589713068e-09,-2.9018311692636416e-10,3.272593858139314e-07,0.0
0.11666667275130749,-3.1052987958801737e-10,0.0,-9.922385135752165e-10,0.0,0.03724322095513344,1.0,3.420388225783293e-08,-5.32264211885207e-09,7.123615932024974e-07,-4.11768024825328e-08,3.991010088974912e-05,0.0,5.969703623636566e-10,-9.289762987929596e-11,1.2433055266136035e-08,-7.186707787635722e-10,6.965626653292406e-07,0.0
0.15000000782310963,1.1913546815733866e-09,0.0,-1.3254330966105954e-10,0.0,0.0787530168890953,1.0,2.079990515354927e-08,-4.299355977004419e-09,8.997931565467812e-07,-1.133193603656226e-07,6.459305838713563e-05,0.0,3.6302682903197145e-10,-7.503791751402473e-11,1.5704353168654103e-08,-1.9777959446340797e-09,1.127361542788455e-06,0.0
0.18333334289491177,2.3350028577340254e-09,0.0,-1.178747377483802e-10,0.0,0.13287337124347687,1.0,5.822424278837899e-10,-5.7194704512683186e-09,7.330623847613267e-07,-1.5344713657986375e-07,8.714644755945512e-05,0.0,1.0162047411377775e-11,-9.982359084515804e-11,1.2794352236606656e-08,-2.6781577610760533e-09,1.5209924413290686e-06,0.0
0.2166666779667139,3.1552491730479915e-09,0.0,6.458226176064841e-10,0.0,0.19637393951416016,1.0,-1.1295663605861356e-09,-2.5177780658363515e-09,1.3152761009193309e-06,-2.108647184211281e-07,0.00010692483788567281,0.0,-1.9714652111997572e-11,-4.394351708333889e-11,2.295589853383554e-08,-3.680283612739424e-09,1.8661904732661628e-06,0.0
0.25000001303851604,4.325864111365263e-09,0.0,-1.7118445549968442e-10,0.0,0.2666626572608948,1.0,2.199416679949249e-08,-6.066216365389946e-09,8.058818985720303e-07,-2.7375070457044676e-07,0.00012479941433529628,0.0,3.838706268839674e-10,-1.0587544871441794e-10,1.4065292512304918e-08,-4.777851124408586e-09,2.178160684711531e-06,0.0
0.2833333481103182,7.039357541316349e-09,0.0,1.2734222010202245e-10,0.0,0.3416689336299896,1.0,2.2304322770510723e-08,-5.843480697701369e-09,1.097281974059995e-06,-3.24392309705081e-07,0.00014125220935866929,0.0,3.892838697729557e-10,-1.0198797795162434e-10,1.9151183270129924e-08,-5.6617138725028185e-09,2.465316129025127e-06,0.0
0.3166666831821203,8.032945864044905e-09,0.0,1.1395473453745808e-10,0.0,0.4197283983230591,1.0,1.2509814404060452e-08,-6.713144354675948e-09,1.181995575031605e-06,-3.5163877101026877e-07,0.0001558961418176888,0.0,2.1833745016426717e-10,-1.1716647215076527e-10,2.0629714528305184e-08,-6.137254331795577e-09,2.720900965874687e-06,0.0
0.35000001825392246,1.0762059687863257e-08,0.0,-2.810313093348782e-10,0.0,0.4994984567165375,1.0,3.053570986407674e-09,-8.485677401846117e-09,1.000896228853736e-06,-3.942976974795246e-07,0.00016972834054066973,0.0,5.329486765618493e-11,-1.4810300992429269e-10,1.7468934664292363e-08,-6.881793054050251e-09,2.962318376380859e-06,0.0
0.3833333533257246,1.2842659380396526e-08,0.0,-1.5058626567920896e-10,0.0,0.5798928141593933,1.0,8.51879110759304e-09,-8.115245965518365e-09,8.723427795794451e-07,-4.3030755869927337e-07,0.00018255357463386709,0.0,1.4868095311711306e-10,-1.416377617074817e-10,1.5225253709660472e-08,-7.510283695521088e-09,3.1861609386461824e-06,0.0
0.41666668839752674,1.6229421362368157e-08,0.0,-1.0015357432280325e-09,0.0,0.6600331664085388,1.0,1.9828468362268852e-08,-1.1769591179459975e-08,9.287298719752153e-07,-4.755392632874546e-07,0.00019463747588197396,0.0,3.4607205854911926e-10,-2.0541811769525936e-10,1.620939412759292e-08,-8.299725866874277e-09,3.3970648019114995e-06,0.0
0.4500000234693289,1.859594789266339e-08,0.0,-5.060476482299237e-10,0.0,0.7392111420631409,1.0,2.127129255123641e-08,-1.0423253451225963e-08,1.0338866384980327e-06,-5.041870546731164e-07,0.0002060990770272659,0.0,3.7125409117401993e-10,-1.8192009149375523e-10,1.8044725934167033e-08,-8.799724149978543e-09,3.597107479447197e-06,0.0
0.483333358541131,2.107718621857657e-08,0.0,-6.943920993762731e-10,0.0,0.8168596029281616,1.0,1.664045988332955e-08,-1.1710028075548153e-08,8.893587800801912e-07,-5.460579788687553e-07,0.00021696081151421434,0.0,2.904308140101321e-10,-2.0437854541929057e-10,1.5522238943919495e-08,-9.5305096380454e-09,3.7866805087218645e-06,0.0
0.5166666936129332,2.4433736811602103e-08,0.0,-6.049394318807799e-11,0.0,0.8925268054008484,1.0,5.665289525853461e-09,-9.6021163546024e-09,6.328596857160611e-07,-5.716027944775257e-07,0.00022756202101673187,0.0,9.88779553048913e-11,-1.6758854554740726e-10,1.1045485218881794e-08,-9.976350777233283e-09,3.971706519234505e-06,0.0
0.5500000286847353,2.750572569709675e-08,0.0,-4.058638980453111e-10,0.0,0.9658594727516174,1.0,8.556260154729837e-09,-1.1055481766046471e-08,1.1895497224388138e-06,-5.975616946134494e-07,0.0002378663456374455,0.0,1.4933491135723513e-10,-1.9295455721170838e-10,2.076155927274197e-08,-1.0429419054801556e-08,4.151550911060274e-06,0.0
0.5833333637565374,3.048481644896128e-08,0.0,-8.286673014445967e-10,0.0,1.0365864038467407,1.0,2.0422211487782195e-09,-1.2730289805443194e-08,1.4848053595294843e-06,-6.464067484811105e-07,0.00024787986924285207,0.0,3.5643483100040904e-11,-2.221854718380521e-10,2.5914742275047663e-08,-1.1281926068106233e-08,4.3263198677007924e-06,0.0
0.6166666988283396,3.420974081791428e-08,0.0,-8.758335168224107e-10,0.0,1.1045055389404297,1.0,-4.136045426276594e-09,-1.3058878938164354e-08,8.731118351300544e-07,-6.945815806449507e-07,0.00025765498864712067,0.0,-7.218761070057897e-11,-2.2792043409030895e-10,1.523867626114934e-08,-1.2122735505960907e-08,4.496927886080866e-06,0.0
0.6500000339001417,3.818277960476735e-08,0.0,-6.213175529623527e-10,0.0,1.16947340965271,1.0,-2.1189121367549514e-11,-1.1942334392978533e-08,-2.3269390955757375e-07,-7.240167370491511e-07,0.0002673185661514728,0.0,-3.6981993346842257e-13,-2.0843305553163377e-10,-4.0612748711175636e-09,-1.2636475901053702e-08,4.665589131053468e-06,0.0
0.6833333689719439,4.177151069484353e-08,0.0,-4.423809096820719e-10,0.0,1.2313965559005737,1.0,-7.102413273790048e-08,-1.1566091423805201e-08,-3.205730743066822e-07,-7.182121203763471e-07,0.0002772113243503514,0.0,-1.2396049646498582e-09,-2.0186637693207962e-10,-5.5950556398920425e-09,-1.2535166228297112e-08,4.838250333727562e-06,0.0
0.716666704043746,4.495029060080924e-08,0.0,1.318097853086897e-10,0.0,1.2902227640151978,1.0,-9.822070399465615e-08,-7.191348176655103e-09,6.619850198401794e-07,-7.281937208199426e-07,0.0002867278989574307,0.0,-1.7142746783334967e-09,-1.2551270333992235e-10,1.1553818195091119e-08,-1.270937802065638e-08,5.004345894132782e-06,0.0
0.7500000391155481,4.913275830631392e-08,0.0,-4.703550882112495e-10,0.0,1.345934510231018,1.0,-9.96744781509706e-08,-7.2049028600428315e-09,1.573796523764362e-06,-7.61558694482333e-07,0.00029615627703760884,0.0,-1.7396478239415864e-09,-1.257492771941036e-10,2.74679310961293e-08,-1.3291706665906284e-08,5.168902134754752e-06,0.0
0.7833333741873503,5.261266977640844e-08,0.0,-1.1952514533675185e-09,0.0,1.3985456228256226,1.0,-8.247506232766191e-08,-7.704075816842678e-09,2.7181419440485362e-06,-8.14769712570944e-07,0.0003055699339842768,0.0,-1.4394613884052387e-09,-1.3446148882717635e-10,4.744052646020644e-08,-1.4220414129890806e-08,5.333201443127345e-06,0.0
0.8166667092591524,5.678739611880701e-08,0.0,-9.950337220843153e-10,0.0,1.448093056678772,1.0,5.601334683946641e-08,-5.495613054192585e-09,3.0160957293084656e-06,-9.03178314303238e-07,0.0003146822897128823,0.0,9.776173274102485e-10,-9.591654221124216e-11,5.264080103177236e-08,-1.5763435317203697e-08,5.492242053204478e-06,0.0
0.8500000443309546,6.18945605879162e-08,0.0,-9.616130114409316e-10,0.0,1.4946342706680298,1.0,7.611405617068787e-08,-7.35010761503673e-09,2.4191693687596767e-06,-9.871153023007188e-07,0.0003241442788781156,0.0,1.3284408872264103e-09,-1.282835782582988e-10,4.222247064824921e-08,-1.72284121219667e-08,5.657384917925829e-06,0.0
0.8833333794027567,6.625014492556147e-08,0.0,-1.5515323470438602e-09,0.0,1.5382438898086548,1.0,7.01837475038851e-08,-1.1343784013155511e-08,1.448489738945744e-06,-1.0545199321857456e-06,0.00033360134362785875,0.0,1.2249374753311468e-09,-1.9798638066465943e-10,2.5280915125956373e-08,-1.8404844844548585e-08,5.82244183538314e-06,0.0
0.9166667144745588,7.131900048307216e-08,0.0,-1.1095396823534998e-09,0.0,1.5790094137191772,1.0,6.315056539786653e-08,-1.150997846991983e-08,1.4553120462458315e-07,-1.0990193817266627e-06,0.0003432435820013036,0.0,1.1021852906887739e-09,-2.0088702113376014e-10,2.539998685092574e-09,-1.9181506754362666e-08,5.990730642261896e-06,0.0
0.950000049546361,7.612553076796758e-08,0.0,-1.8892434283657167e-09,0.0,1.6170284748077393,1.0,3.34857179270996e-08,-1.5509454231810153e-08,6.898228700966458e-07,-1.1115673273793037e-06,0.0003532261521434951,0.0,5.844360302219786e-10,-2.70691041532455e-10,1.2039680338743604e-08,-1.9400509720362563e-08,6.164959359054416e-06,0.0
0.9833333846181631,8.195442546821141e-08,0.0,-1.1737136818013028e-09,0.0,1.652407169342041,1.0,3.3030257536710944e-08,-1.3417125249855763e-08,1.5267825762074822e-06,-1.1536264110482792e-06,0.00036308245925206767,0.0,5.764867467972778e-10,-2.341730117624499e-10,2.6647382916901803e-08,-2.013457921075796e-08,6.336984370186729e-06,0.0
1.0166667196899652,8.770719972517327e-08,0.0,-9.182663518458867e-10,0.0,1.6852574348449707,1.0,2.3605882573743794e-08,-1.3043757026592688e-08,2.4971953835140286e-06,-1.2161019451649383e-06,0.00037325429366933457,0.0,4.1200037375098234e-10,-2.2765650694418795e-10,4.358428150792232e-08,-2.122498298303571e-08,6.514516371735715e-06,0.0
1.0500000547617674,9.450739213434645e-08,0.0,-1.6471508601512141e-09,0.0,1.715693712234497,1.0,4.403319593938079e-08,-1.6461601316501594e-08,1.6932897109062495e-06,-1.3100291878037896e-06,0.00038336317895552917,0.0,7.685242493179921e-10,-2.87309143123586e-10,2.955348064545699e-08,-2.2864322624403273e-08,6.69094970368622e-06,0.0
1.0833333898335695,1.004690943773312e-07,0.0,-1.036399299714219e-09,0.0,1.743833065032959,1.0,1.7427992434955435e-08,-1.549789564742398e-08,3.1975153454667236e-07,-1.3656980621429466e-06,0.0003932197466143343,0.0,3.04175850002636e-10,-2.704893061780467e-10,5.580717066143826e-09,-2.3835927772500542e-08,6.862979262277959e-06,0.0
1.1166667249053717,1.0769084468620349e-07,0.0,-8.82051098827219e-10,0.0,1.7697960138320923,1.0,-9.520175580395556e-08,-1.495249829667879e-08,4.155602822651285e-08,-1.3785339265006588e-06,0.0004034561455790705,0.0,-1.6615840924586457e-09,-2.609703266758888e-10,7.252895166043492e-10,-2.405995586788201e-08,7.041638127760345e-06,0.0
1.1500000599771738,1.1217183271128306e-07,0.0,-1.149713102499561e-09,0.0,1.7936983108520508,1.0,-1.1108837058000065e-07,-1.312332702273084e-08,1.1999020581061605e-06,-1.4008805357256243e-06,0.00041383678559824813,0.0,-1.9388578272966142e-09,-2.2904526536259788e-10,2.0942241615408817e-08,-2.4449977775514197e-08,7.222814474559281e-06,0.0
1.183333395048976,1.1901034469019578e-07,0.0,-1.5317267454406647e-09,0.0,1.8156577348709106,1.0,-3.483204214106581e-07,-1.1715301271157181e-08,1.0392191879427284e-06,-1.47710008698216e-06,0.0004246723998417693,0.0,-6.079338205550136e-09,-2.044705800447698e-10,1.8137796479502365e-08,-2.5780259899333324e-08,7.41193161958472e-06,0.0
1.216666730120778,1.264333917561089e-07,0.0,-1.6515893097590606e-09,0.0,1.835789442062378,1.0,-4.2244694892287233e-07,-1.3298670022431496e-09,-7.308761215972813e-07,-1.5204419580635654e-06,0.00043515468082847095,0.0,-7.373090173708435e-09,-2.3210557802769777e-11,-1.2756194746078995e-08,-2.6536718253678762e-08,7.594881935921864e-06,0.0
1.2500000651925802,1.337120210109788e-07,0.0,-1.8577506200045946e-09,0.0,1.8542040586471558,1.0,-4.952692672124503e-07,9.612522874674388e-09,-1.4632989798475514e-07,-1.5228100511927229e-06,0.0004458341989441836,0.0,-8.644079396796856e-09,1.6777017358633831e-10,-2.5539385139413925e-09,-2.6578049275776415e-08,7.78127468956743e-06,0.0
1.2833334002643824,1.3855631664227985e-07,0.0,-9.977267900751485e-10,0.0,1.871010422706604,1.0,-4.804182950832719e-07,2.5884630024185422e-08,5.3915815279869554e-08,-1.5454342871541467e-06,0.0004567311208484855,0.0,-8.38488103602078e-09,4.5177201958261504e-10,9.410084955307917e-10,-2.6972916684051366e-08,7.971461855130189e-06,0.0
1.3166667353361845,1.4600134079501004e-07,0.0,-1.7096778437419857e-09,0.0,1.8863130807876587,1.0,-4.903827367626413e-07,3.517178961772906e-08,-1.2422508019470418e-06,-1.5765614814926022e-06,0.00046772059048843996,0.0,-8.55879335144873e-09,6.138635326481298e-10,-2.1681366629515864e-08,-2.7516188712165552e-08,8.16326428339535e-06,0.0
1.3500000704079866,1.5113268148070347e-07,0.0,-1.8818808733556125e-09,0.0,1.9002124071121216,1.0,-5.89637020942398e-07,4.7874671650878964e-08,-1.0817721696435963e-06,-1.5380336056969853e-06,0.0004790695163372341,0.0,-1.0291107407095604e-08,8.355706486190272e-10,-1.8880486116723407e-08,-2.6843750425732608e-08,8.3613404060215e-06,0.0
1.3833334054797888,1.5678607212521456e-07,0.0,-1.2322230735772877e-10,0.0,1.9128042459487915,1.0,-5.648988391050422e-07,7.146210131009235e-08,8.890152858092127e-07,-1.5496996676267825e-06,0.0004902519500615978,0.0,-9.859344683076684e-09,1.2472489582548647e-09,1.5516243837929182e-08,-2.7047361617149132e-08,8.556510692897699e-06,0.0
1.416666740551591,1.64022509352435e-07,0.0,4.011986298735337e-10,0.0,1.924180507659912,1.0,-5.687220301133497e-07,8.824393380438542e-08,-6.918876419204509e-07,-1.6082567530690883e-06,0.0005013845143347821,0.0,-9.926071954104291e-09,1.5401471897984514e-09,-1.2075717405371409e-08,-2.806937555848901e-08,8.750810593654656e-06,0.0
1.450000075623393,1.6991518236864067e-07,0.0,1.1204571714884537e-09,0.0,1.9344279766082764,1.0,-5.86962190469022e-07,1.063408427598175e-07,5.496462898858331e-07,-1.5993565644982744e-06,0.0005125904497666475,0.0,-1.0244422808402512e-08,1.8559978355043889e-09,9.593137479878995e-09,-2.7914037963879938e-08,8.946391062706598e-06,0.0
1.4833334106951952,1.7551131747950421e-07,0.0,2.042654045908421e-09,0.0,1.9436296224594116,1.0,-5.460189008115415e-07,1.2618792496469385e-07,1.0578379854634408e-06,-1.663653491469598e-06,0.0005236759585120921,0.0,-9.529827597281737e-09,2.202394766893457e-09,1.8462755799000957e-08,-2.903623103844388e-08,9.139869689573233e-06,0.0
1.5166667457669973,1.8135041557343357e-07,0.0,3.159796868601461e-09,0.0,1.9518643617630005,1.0,-3.8390493462410006e-07,1.4635246523764749e-07,3.8692062025068946e-07,-1.7022464744533445e-06,0.000534965687168299,0.0,-6.700405123844125e-09,2.554332386807494e-09,6.753038767233178e-09,-2.9709805659676403e-08,9.336912626280798e-06,0.0
1.5500000808387995,1.8753202368770872e-07,0.0,4.115844554064552e-09,0.0,1.9592039585113525,1.0,-3.005867199229252e-07,1.5867583834403848e-07,1.5854125751810627e-06,-1.7353628879026734e-06,0.0005459873609084645,0.0,-5.246227950425081e-09,2.7694158224657383e-09,2.7670669439431677e-08,-3.028779611081892e-08,9.529277122127285e-06,0.0
1.5833334159106016,1.954581989593862e-07,0.0,3.974140572182705e-09,0.0,1.9657191038131714,1.0,-2.705011236322631e-07,1.6602539717252138e-07,5.683473019453597e-07,-1.8192003701928948e-06,0.0005568878263107461,0.0,-4.7211352377272336e-09,2.897689822591782e-09,9.9195317137729e-09,-3.175103621336572e-08,9.719526133396827e-06,0.0
1.6166667509824038,2.016531084336748e-07,0.0,5.5036317725409845e-09,0.0,1.9714726209640503,1.0,-1.6951943765907805e-07,1.784271368176742e-07,1.2253101928585192e-06,-1.848551875449355e-06,0.000567983965540438,0.0,-2.9586723332801805e-09,3.1141410123748123e-09,2.1385697223627868e-08,-3.2263316620507377e-08,9.913190297214657e-06,0.0
1.650000086054206,2.0839183889620472e-07,0.0,6.337965263725209e-09,0.0,1.9765268564224243,1.0,-1.4381353413751037e-07,1.8561812256225323e-07,1.3984778977633059e-06,-1.9288819956379178e-06,0.0005788853689237433,0.0,-2.5100196796288195e-09,3.239647390081692e-09,2.440804383233833e-08,-3.366534170632057e-08,1.0103455679341385e-05,0.0
1.683333421126008,2.164467360898925e-07,0.0,7.2996417799231494e-09,0.0,1.9809376001358032,1.0,-1.0806683077760746e-07,1.9385230919311667e-07,1.027193717576089e-06,-1.978489969070531e-06,0.0005898774440695514,0.0,-1.886122009264794e-09,3.3833610580139583e-09,1.79279124275035e-08,-3.4531164177961536e-08,1.029530358226237e-05,0.0
1.7166667561978102,2.238540872667727e-07,0.0,8.301412002253983e-09,0.0,1.9847573041915894,1.0,-1.1366195982069798e-07,1.9997024427933296e-07,1.979508824351337e-06,-2.040412956051606e-06,0.0006007417970940274,0.0,-1.9837754331406833e-09,3.4901391686917154e-09,3.454894655721294e-08,-3.561192418345088e-08,1.0484922313638481e-05,0.0
1.7500000912696123,2.308367896830532e-07,0.0,9.042275372905806e-09,0.0,1.9880362749099731,1.0,-1.3201806905828113e-07,2.0619218688521374e-07,5.625002728284987e-07,-2.1304004278372763e-06,0.0006117084945691584,0.0,-2.3041499771922554e-09,3.598732553034451e-09,9.817481804223701e-09,-3.718250185165633e-08,1.0676327292649665e-05,0.0
1.7833334263414145,2.3888171085673093e-07,0.0,1.0657832838489867e-08,0.0,1.9908195734024048,1.0,-9.850879540289324e-08,2.1621021556803198e-07,2.0259161608888464e-06,-2.165901547965162e-06,0.0006227833207233044,0.0,-1.719302821953941e-09,3.77358013810886e-09,3.535890737687354e-08,-3.780211328603396e-08,1.0869619473125495e-05,0.0
1.8166667614132166,2.4830873712744506e-07,0.0,1.207887834198118e-08,0.0,1.9931496381759644,1.0,3.985099808075681e-08,2.229953485366251e-07,8.199646893791965e-07,-2.271993529386174e-06,0.0006337923316880106,0.0,6.955311267151475e-10,3.892003048596427e-09,1.4311083579759559e-08,-3.965376767179528e-08,1.1061762961847774e-05,0.0
1.8500000964850187,2.5670743752925773e-07,0.0,1.2955979400430806e-08,0.0,1.9950655698776245,1.0,1.030602579084358e-07,2.2481967207880286e-07,6.625653451749751e-07,-2.2976064519620156e-06,0.000644749076112496,0.0,1.7987408284567295e-09,3.9238435010290746e-09,1.156394678291604e-08,-4.01007975018021e-08,1.1252994227354577e-05,0.0
1.8833334315568209,2.645193717398797e-07,0.0,1.3268506293684368e-08,0.0,1.9966028928756714,1.0,1.1634472384402294e-07,2.2224690715279778e-07,1.0281054416446455e-06,-2.374481357098475e-06,0.0006560265588667946,0.0,2.030598498401754e-09,3.878940282190458e-09,1.794382501436949e-08,-4.144251770859162e-08,1.1449823432753967e-05,0.0
1.916666766628623,2.745193228292919e-07,0.0,1.4892075128614124e-08,0.0,1.9977964162826538,1.0,1.2905156086039426e-07,2.2540331462288227e-07,7.223728327779086e-07,-2.420942753802714e-06,0.00066719612137987,0.0,2.2523746418517262e-09,3.934029985077976e-09,1.2607784358932921e-08,-4.225342205615583e-08,1.1644769074614464e-05,0.0
1.9500001017004251,2.821359714744176e-07,0.0,1.6319077644766367e-08,0.0,1.9986766576766968,1.0,1.43827980405293e-07,2.2691741454667574e-07,1.1285223391991488e-06,-2.482639504524877e-06,0.0006784797531389073,0.0,2.510271814566251e-09,3.960456013952367e-09,1.9696430501333415e-08,-4.3330233494039765e-08,1.1841705600392265e-05,0.0
1.9833334367722273,2.9147599889256526e-07,0.0,1.761806522893039e-08,0.0,1.9992715120315552,1.0,1.4352270159614571e-07,2.2751145399325472e-07,5.589613166403432e-07,-2.5507945443443743e-06,0.0006898247186113559,0.0,2.5049436942100635e-09,3.9708239581818955e-09,9.755715366656558e-09,-4.451976334071783e-08,1.2039712601411565e-05,0.0
2.0166667718440294,2.936683358711889e-07,0.0,0.0005320639465935528,0.0,1.9996076822280884,1.0,-0.1786159371357566,0.16981814092659545,-1.7648537938021512e-07,-2.630749500294464e-06,0.0007014149010923239,0.0,-0.0031174361995541626,0.0029638856887848246,-3.0802509518160633e-09,-4.591524057533393e-08,1.2241999446611425e-05,0.0
2.0500001069158316,2.7342179009792744e-07,0.0,0.0032369159162044525,0.0,1.999703288078308,1.0,-0.9492251168322996,0.5267833727315483,4.328004732680082e-06,-4.340068866087838e-06,0.0007148906238803726,0.0,-0.016567103631351474,0.009194104298926033,7.553793262716445e-08,-7.574849147652964e-08,1.2477195178348904e-05,0.0
2.0833334419876337,2.2511321162710374e-07,0.0,0.008263718336820602,0.0,1.9995626211166382,1.0,-2.0872666168996497,0.9194741962398045,9.072589692664832e-05,-3.880633913335663e-06,0.0007269679437349019,0.0,-0.036429674831862005,0.016047852111513054,1.5834656181950174e-06,-6.772983885225961e-08,1.2687984174626922e-05,0.0
2.116666777059436,1.617196119241271e-07,0.0,0.015829522162675858,0.0,1.9991785287857056,1.0,-3.4015450526164743,1.3578147922489672,0.00012869387881274454,-7.444577179139117e-06,0.0007403196260845577,0.0,-0.05936816082308123,0.02369833875702726,2.246131912444963e-06,-1.299323831948093e-07,1.2921014992308829e-05,0.0
2.150000112131238,9.137486500776504e-08,0.0,0.02618388459086418,0.0,1.9985343217849731,1.0,-4.748134174012031,1.8465059937475976,-0.00020695885663819563,-1.3418403376773082e-05,0.0007803694012496066,0.0,-0.08287057466297132,0.03222760924870541,-3.6121134644994367e-06,-2.341953192854155e-07,1.3620015433622388e-05,0.0
2.18333344720304,-6.925383644329486e-08,0.0,0.03958168998360634,0.0,1.9976075887680054,1.0,-6.072866063203771,2.3868117280608483,6.560935229915693e-05,-1.964931231847528e-06,0.0007683670711525638,0.0,-0.10599150783553186,0.04165772327987733,1.1450992177212001e-06,-3.429451957100742e-08,1.341053525551778e-05,0.0
2.2166667822748423,-2.6680515929911053e-07,0.0,0.056275106966495514,0.0,1.9963760375976562,1.0,-7.268965335278296,2.978017634588745,0.0004838038853950125,-7.499014653975403e-06,0.0007351689162492247,0.0,-0.1268673783139398,0.05197621290602697,8.443970734084275e-06,-1.3088249636717406e-07,1.2831118146867413e-05,0.0
2.2500001173466444,-4.149648873408296e-07,0.0,0.07649204134941101,0.0,1.99482262134552,1.0,-8.320338329311078,3.616792028098388,0.0006724807777573112,-2.2963489941696832e-05,0.0007255375811574905,0.0,-0.14521729872636252,0.06312492925020013,1.1737003728237328e-05,-4.007885072312104e-07,1.266301963815378e-05,0.0
2.2833334524184465,-4.6371886242013716e-07,0.0,0.09884495288133621,0.0,1.993163824081421,1.0,-8.697668996246884,3.9597318354563855,0.000893789822789558,-4.522911552094944e-05,0.0007095115891363049,0.0,-0.15180296123313844,0.06911035802475227,1.5599575228494436e-05,-7.893969836054381e-07,1.238331331148575e-05,0.0
2.3166667874902487,-3.6174446904624347e-07,0.0,0.12287186831235886,0.0,1.9914472103118896,1.0,-8.424583592135054,4.312771686181261,0.0009417195208061171,-7.519978383208936e-05,0.0007191993240929234,0.0,-0.14703672179224775,0.07527206581065063,1.643610626836999e-05,-1.312483824657958e-06,1.2552396183539293e-05,0.0
2.350000122562051,-9.640691445156335e-08,0.0,0.14851440489292145,0.0,1.9896706342697144,1.0,-7.716943774716824,4.658637760501845,0.0007934929879292699,-0.00010889096530366946,0.0007565135854876648,0.0,-0.13468607706008812,0.08130856757849224,1.3849065230853382e-05,-1.900505870223939e-06,1.3203652902827342e-05,0.0
2.383333457633853,2.9832321501999104e-07,0.0,0.17563453316688538,0.0,1.987853765487671,1.0,-6.749315055850405,4.985722525670435,0.0007510785948684252,-0.00013623667187811036,0.0007776358034639049,0.0,-0.11779776997901455,0.08701727366379661,1.3108794421706606e-05,-2.3777784862321925e-06,1.3572305151836667e-05,0.0
2.416666792705655,8.176695587280847e-07,0.0,0.20404604077339172,0.0,1.986020803451538,1.0,-5.641620873844134,5.286744338663473,0.0006017620777708947,-0.00016394004862302353,0.0008090370352793405,0.0,-0.09846485939781978,0.09227109542084776,1.0502729570744293e-05,-2.8612936243513567e-06,1.4120360036198014e-05,0.0
2.4500001277774572,1.4402622809939203e-06,0.0,0.23353621363639832,0.0,1.9841960668563843,1.0,-4.489324166887292,5.557727915099582,0.0004465489102648836,-0.00018958319645736934,0.0008367200993240528,0.0,-0.07835348790153464,0.09700065104848758,7.793748755314923e-06,-3.3088509846363444e-06,1.4603520650818702e-05,0.0
2.4833334628492594,2.139936896128347e-06,0.0,0.2638840079307556,0.0,1.9823962450027466,1.0,-3.362417898526752,5.797133348468087,0.00036378312189609197,-0.0002096103123895044,0.0008561984513894685,0.0,-0.05868526315728041,0.10117906410793188,6.349213240270682e-06,-3.6583900973307147e-06,1.4943482027222844e-05,0.0
2.5166667979210615,2.9026791708020028e-06,0.0,0.29487285017967224,0.0,1.9806305170059204,1.0,-2.30286231198472,6.0052925342589845,0.00031546582486451265,-0.00022504534304126252,0.0008732570550391614,0.0,-0.040192529564222236,0.10481212726825365,5.5059173214055405e-06,-3.92778220235014e-06,1.5241210826702706e-05,0.0
2.5500001329928637,3.7131167118786834e-06,0.0,0.3262990713119507,0.0,1.9789021015167236,1.0,-1.3336378687610233,6.183787724762454,0.00023871469266090897,-0.0002382840741374774,0.0008909742020291065,0.0,-0.023276371839159885,0.10792745604151371,4.166357359819205e-06,-4.158841648765248e-06,1.5550433375737052e-05,0.0
2.583333468064666,4.558195541903842e-06,0.0,0.35797691345214844,0.0,1.9772093296051025,1.0,-0.467287554029475,6.334960047550653,9.937660975887224e-05,-0.0002507724268307321,0.000907695921200896,0.0,-0.008155706371405235,0.11056591081205543,1.7344490397618487e-06,-4.376804521412845e-06,1.5842282431878637e-05,0.0
2.616666803136468,5.41634472028818e-06,0.0,0.3897412419319153,0.0,1.975546956062317,1.0,0.2887234686938716,6.461520276801594,-3.665682135176865e-05,-0.00026116665787960725,0.0009217135319623814,0.0,0.005039175156486831,0.11277480351456319,-6.397822259037215e-07,-4.558218076428739e-06,1.6086935892929545e-05,0.0
2.65000013820827,6.272916380112292e-06,0.0,0.42144811153411865,0.0,1.9739092588424683,1.0,0.9318957624402769,6.566286816831127,-9.083787039584817e-05,-0.0002677208190872143,0.0009344107896648673,0.0,0.01626464933996574,0.11460332458400098,-1.5854199239074353e-06,-4.672609769207969e-06,1.6308544845812137e-05,0.0
2.683333473280072,7.12025166649255e-06,0.0,0.4529753625392914,0.0,1.9722886085510254,1.0,1.4690577465767545,6.652065317146279,-0.00010077426957413197,-0.00027076820875589257,0.0009478519569679108,0.0,0.02563989457969282,0.11610044184192338,-1.7588428053609467e-06,-4.725796752517664e-06,1.654313747056165e-05,0.0
2.7166668083518744,7.951445695653092e-06,0.0,0.48422062397003174,0.0,1.9706790447235107,1.0,1.9139528283457399,6.72156531004975,-0.00015132761089579436,-0.0002731990327397205,0.0009602933294875528,0.0,0.03340477858249102,0.11731344554820164,-2.641165059308457e-06,-4.768222634571907e-06,1.6760280384496547e-05,0.0
2.7500001434236765,8.75984551385045e-06,0.0,0.5150994658470154,0.0,1.9690744876861572,1.0,2.2757570240146703,6.777230640311663,-0.00019401252599006587,-0.00027530248936420264,0.0009725264718696233,0.0,0.03971945304444366,0.11828498884048205,-3.3861573686377207e-06,-4.8049348783420065e-06,1.697378899692894e-05,0.0
2.7833334784954786,9.536931429465767e-06,0.0,0.5455431938171387,0.0,1.967470407485962,1.0,2.562514739644507,6.821185917817721,-0.00018778122349504765,-0.000275329475307774,0.0009869470089760746,0.0,0.044724319337681916,0.11905215315659057,-3.277400623411915e-06,-4.805405871909084e-06,1.722547484934253e-05,0.0
2.8166668135672808,1.0284206837241072e-05,0.0,0.5754978656768799,0.0,1.9658634662628174,1.0,2.7885327981564134,6.855352799159699,-0.00022431097307595732,-0.0002755349795371539,0.0009994202632783832,0.0,0.04866907862767988,0.11964847773114631,-3.914965028527808e-06,-4.808992597338536e-06,1.7443174205356363e-05,0.0
2.850000148639083,1.0999340702255722e-05,0.0,0.6049205660820007,0.0,1.9642503261566162,1.0,2.962004299636379,6.881338512672235,-0.00022960417248661967,-0.0002755343250472897,0.0010133493845254837,0.0,0.0516967274868835,0.12010201399042003,-4.007348786208489e-06,-4.808981174335487e-06,1.7686283233027767e-05,0.0
2.883333483710885,1.1679450835799798e-05,0.0,0.6337786316871643,0.0,1.9626299142837524,1.0,3.09159428451337,6.900466797787897,-0.00022830497786124394,-0.0002746152177841555,0.0010276794659862015,0.0,0.05395849940059664,0.12043586554594857,-3.984673562371469e-06,-4.7929397264148e-06,1.7936390336596293e-05,0.0
2.916666818782687,1.2328606317169033e-05,0.0,0.6620476245880127,0.0,1.9610010385513306,1.0,3.1873006416824565,6.913873394601162,-0.00023541565850795424,-0.0002741792846238196,0.0010416795118130542,0.0,0.05562889044828688,0.12066985480182742,-4.108778351714403e-06,-4.785331257448315e-06,1.8180737231704963e-05,0.0
2.9500001538544893,1.2942102330271155e-05,0.0,0.6897096633911133,0.0,1.9593631029129028,1.0,3.254592637852667,6.922433169960881,-0.00021764950969456443,-0.0002731844523823012,0.0010571708550208374,0.0,0.05680335734169647,0.12081925106508559,-3.798700559521467e-06,-4.7679681593288226e-06,1.845111217623724e-05,0.0
2.9833334889262915,1.3527316696126945e-05,0.0,0.7167518734931946,0.0,1.957716464996338,1.0,3.3011591962160107,6.926873150452684,-0.0002172683311297497,-0.00027269074963401103,0.0010716208169839969,0.0,0.05761609710645892,0.12089674334339187,-3.7920477385274237e-06,-4.7593514208450145e-06,1.8703311589282317e-05,0.0
3.0166668239980936,1.4082711459195707e-05,0.0,0.7431654334068298,0.0,1.9560604095458984,1.0,3.331135589560988,6.927734539130106,-0.0002038697269283986,-0.00027200868376281646,0.0010869168063758683,0.0,0.05813928386820169,0.12091177741195229,-3.5581979800423016e-06,-4.747447125677185e-06,1.8970276966520597e-05,0.0
3.0500001590698957,1.4611821825383231e-05,0.0,0.7689447999000549,0.0,1.9543964862823486,1.0,3.349445526565802,6.925443098923139,-0.00019950118733632905,-0.00027166533867351185,0.0011020018849555242,0.0,0.05845885255476844,0.12087178423572813,-3.4819525806569577e-06,-4.741454623398266e-06,1.9233561255657662e-05,0.0
3.083333494141698,1.511528989794897e-05,0.0,0.7940865159034729,0.0,1.9527246952056885,1.0,3.3590304675538887,6.920306300334369,-0.00018630764850084954,-0.00027134324335094037,0.0011174859796813017,0.0,0.058626141333619916,0.1207821301873423,-3.251681887988102e-06,-4.735832999514121e-06,1.950380969031317e-05,0.0
3.1166668292135,1.559489464852959e-05,0.0,0.8185886740684509,0.0,1.951046109199524,1.0,3.362784682124788,6.912548710226619,-0.00017952725965471542,-0.00027136701833045007,0.0011327286765929192,0.0,0.05869166473870846,0.12064673469794192,-3.1333417780575625e-06,-4.736247951186159e-06,1.9769844938304466e-05,0.0
3.150000164285302,1.605322540854104e-05,0.0,0.8424506187438965,0.0,1.9493612051010132,1.0,3.3626213736329755,6.902321393223758,-0.00017405690169373952,-0.0002713949997056448,0.0011479420140452514,0.0,0.05868881446782986,0.1204682343425968,-3.0378660203758494e-06,-4.736736318312543e-06,2.003536776706463e-05,0.0
3.1833334993571043,1.6491492715431377e-05,0.0,0.8656723499298096,0.0,1.9476710557937622,1.0,3.360115598868786,6.889724081743824,-0.00016745720603557286,-0.0002715067680728405,0.0011632193218105887,0.0,0.05864508044788137,0.12024836978037268,-2.922679601511267e-06,-4.7386870443196855e-06,2.030200708841026e-05,0.0
3.2166668344289064,1.691166835371405e-05,0.0,0.8882544636726379,0.0,1.9459751844406128,1.0,3.3564084350975913,6.874817305585264,-0.00016109378339352457,-0.0002716739167988071,0.0011782109355273898,0.0,0.05858037823416337,0.119988197455548,-2.8116169247115677e-06,-4.741604339928318e-06,2.0563660107955584e-05,0.0
3.2500001695007086,1.7312771888100542e-05,0.0,0.9101974964141846,0.0,1.9442756175994873,1.0,3.3522300033742,6.857629508711656,-0.00015409874213370733,-0.00027192948898048633,0.0011930898159844545,0.0,0.05850745084302041,0.11968821380893956,-2.689530423414905e-06,-4.746064915975125e-06,2.0823345560942003e-05,0.0
3.2833335045725107,1.7699403542792425e-05,0.0,0.9315023422241211,0.0,1.9425722360610962,1.0,3.348113130800858,6.838174974269473,-0.00015232522000504587,-0.0002722885279993379,0.0012077857967613436,0.0,0.05843559786173054,0.11934866812848083,-2.658576622912784e-06,-4.752331328997215e-06,2.107983881230851e-05,0.0
3.316666839644313,1.8069697034661658e-05,0.0,0.9521697163581848,0.0,1.940865397453308,1.0,3.344337386671184,6.816448415957423,-0.0001509123970286822,-0.0002725424216775363,0.0012224912514926514,0.0,0.05836969869495488,0.11896946815080901,-2.633918210227412e-06,-4.756762609631776e-06,2.133649741537281e-05,0.0
3.350000174716115,1.8425202142680064e-05,0.0,0.9722002744674683,0.0,1.9391560554504395,1.0,3.340998727553072,6.792441172097249,-0.0001476843911016425,-0.0002727979869029592,0.0012374370719133766,0.0,0.058311428100742094,0.11855046270111978,-2.5775788785266774e-06,-4.7612230642690076e-06,2.159735119112627e-05,0.0
3.383333509787917,1.876628266472835e-05,0.0,0.9915945529937744,0.0,1.9374446868896484,1.0,3.338186056634106,6.766139745394422,-0.00014386089506905725,-0.0002730879157426052,0.0012527168327763375,0.0,0.05826233773243105,0.1180914162071835,-2.5108462838211244e-06,-4.766283277117316e-06,2.1864033327102308e-05,0.0
3.4166668448597193,1.909368256747257e-05,0.0,1.010353446006775,0.0,1.9357317686080933,1.0,3.3357897359882003,6.737531911790494,-0.000140397332712394,-0.00027342888855803296,0.0012680223184436256,0.0,0.058220514047226474,0.11759211531893228,-2.450395716849216e-06,-4.772234375406326e-06,2.2131164445613287e-05,0.0
3.4500001799315214,1.9407814761507325e-05,0.0,1.0284770727157593,0.0,1.934017300605774,1.0,3.3337490385650397,6.706606189135833,-0.0001414878432577755,-0.00027371915979206506,0.0012830008860414866,0.0,0.058184897158155356,0.11705235963504984,-2.4694287163938424e-06,-4.777300564164013e-06,2.23925897674285e-05,0.0
3.4833335150033236,1.9710407286765985e-05,0.0,1.0459654331207275,0.0,1.932302474975586,1.0,3.331919523201328,6.673351820866932,-0.00014238115574553048,-0.0002738616243080354,0.0012980318556399073,0.0,0.05815296609134277,0.11647196141808679,-2.4850199605543482e-06,-4.779787039034955e-06,2.2654929676688108e-05,0.0
3.5166668500751257,2.0000037693534978e-05,0.0,1.0628191232681274,0.0,1.9305869340896606,1.0,3.3301097023173587,6.637764547422987,-0.00014271798274769618,-0.0002738973635815431,0.0013131026205303916,0.0,0.05812137875804615,0.11585084632468241,-2.490898700751762e-06,-4.780410807029936e-06,2.2917964144821022e-05,0.0
3.550000185146928,2.0277548173908144e-05,0.0,1.0790388584136963,0.0,1.928871512413025,1.0,3.3282186410633807,6.599847608226036,-0.0001405525714603402,-0.00027384356086759186,0.0013283618065836212,0.0,0.058088373512807344,0.11518907089341712,-2.453105144127551e-06,-4.779471772524978e-06,2.3184287182624276e-05,0.0
3.58333352021873,2.0541574485832825e-05,0.0,1.0946247577667236,0.0,1.9271564483642578,1.0,3.3260685299391457,6.559604276338414,-0.0001380365762558122,-0.00027382458870684037,0.0013439143564082739,0.0,0.058050846994405686,0.11448669225000528,-2.4091927438441494e-06,-4.779140645853646e-06,2.3455730384144934e-05,0.0
3.616666855290532,2.0796174794668332e-05,0.0,1.1095770597457886,0.0,1.9254417419433594,1.0,3.323528609250214,6.5170428606682185,-0.0001387522685043491,-0.00027378109929777336,0.0013594933460215563,0.0,0.0580065170156443,0.11374385541225047,-2.4216839300121198e-06,-4.778381612475681e-06,2.372763504703071e-05,0.0
3.6500001903623343,2.1037521946709603e-05,0.0,1.1238963603973389,0.0,1.9237282276153564,1.0,3.3205045697204087,6.472176987742673,-0.00014078545313517819,-0.000273575765479649,0.0013748431034110815,0.0,0.05795373756913874,0.11296079820791832,-2.4571696961210327e-06,-4.774797861283719e-06,2.3995538852860254e-05,0.0
3.6833335254341364,2.1268444470479153e-05,0.0,1.1375831365585327,0.0,1.9220163822174072,1.0,3.31684513743414,6.425022893733104,-0.0001446815532847,-0.00027317036963242204,0.0013900253534812838,0.0,0.057889868426989566,0.1121378040116564,-2.525169471717632e-06,-4.767722368975696e-06,2.4260519104446424e-05,0.0
3.7166668605059385,2.1486292098416016e-05,0.0,1.1506381034851074,0.0,1.9203053712844849,1.0,3.3124479489341088,6.375602009013419,-0.000144353046772645,-0.00027257565553630357,0.0014057991436291202,0.0,0.05781312300983319,0.11127524685404935,-2.51943595146803e-06,-4.757342649890407e-06,2.4535823678044815e-05,0.0
3.7500001955777407,2.169290564779658e-05,0.0,1.1630622148513794,0.0,1.9185963869094849,1.0,3.307334347162564,6.323939574116021,-0.00014153071851483558,-0.00027195146540051575,0.001421444787644699,0.0,0.05772387382228392,0.11037356726549254,-2.47017703079718e-06,-4.746448476862439e-06,2.480889167971161e-05,0.0
3.783333530649543,2.188804319303017e-05,0.0,1.174856185913086,0.0,1.9168901443481445,1.0,3.3013804199843992,6.270058834495218,-0.0001425680329734381,-0.000271283100289712,0.0014368438522407358,0.0,0.05761995818960097,0.10943317095569977,-2.488281583478336e-06,-4.734783305073457e-06,2.5077656058639744e-05,0.0
3.816666865721345,2.2071861167205498e-05,0.0,1.1860214471817017,0.0,1.9151852130889893,1.0,3.2944578813350565,6.213988955590611,-0.0001399279038555498,-0.00027045781516448137,0.0014525234694849536,0.0,0.05749913709757338,0.10845456695761986,-2.442202637693412e-06,-4.720379362370449e-06,2.5351317005003822e-05,0.0
3.850000200793147,2.2245067157200538e-05,0.0,1.1965588331222534,0.0,1.9134830236434937,1.0,3.286654430975728,6.155761815814696,-0.0001385416620850264,-0.00026966827508472494,0.001468238233421785,0.0,0.05736294119578716,0.10743831165451119,-2.418008154569103e-06,-4.706599288402241e-06,2.5625591376875197e-05,0.0
3.8833335358649492,2.2406518837669864e-05,0.0,1.206470251083374,0.0,1.9117836952209473,1.0,3.277984576076816,6.095408985007401,-0.0001468503644899462,-0.00026870730489228305,0.0014832356937103045,0.0,0.05721162368213099,0.10638495604402483,-2.563022368103324e-06,-4.689827194530606e-06,2.588734643834696e-05,0.0
3.9166668709367514,2.2557896954822354e-05,0.0,1.2157572507858276,0.0,1.9100877046585083,1.0,3.268257237842405,6.032963019498899,-0.00015022975054498086,-0.00026731796339222953,0.0014984587453863996,0.0,0.05704184960248538,0.10529506834131465,-2.6220037814596616e-06,-4.665578610920075e-06,2.615303881229606e-05,0.0
3.9500002060085535,2.2697193344356492e-05,0.0,1.224421501159668,0.0,1.9083943367004395,1.0,3.257498152201766,5.968458638358187,-0.0001445536661752382,-0.000265843984368836,0.0015144107178882104,0.0,0.056854068133552184,0.10416925450844788,-2.522937420586665e-06,-4.639852823856527e-06,2.6431453254640256e-05,0.0
3.9833335410803556,2.2824091502116062e-05,0.0,1.2324652671813965,0.0,1.9067044258117676,1.0,3.2459133054003217,5.901933513840321,-0.0001422555092402734,-0.00026452111648849494,0.0015303754469761326,0.0,0.056651874413527856,0.10300817205031193,-2.4828270153439877e-06,-4.616764423775697e-06,2.671009034141341e-05,0.0
4.016666876152158,2.294032856298145e-05,0.0,1.2398905754089355,0.0,1.9050182104110718,1.0,3.2333591048821293,5.833420647916731,-0.00014334508254486715,-0.0002630814962979349,0.001546018706551255,0.0,0.05643276227952981,0.10181239695996785,-2.501843656950984e-06,-4.591638311472237e-06,2.6983116726743426e-05,0.0
4.05000021122396,2.304634290339891e-05,0.0,1.2466999292373657,0.0,1.903335452079773,1.0,3.21972572840502,5.762955788390662,-0.00014282864477970975,-0.0002613972402372573,0.0015615515870832243,0.0,0.05619481497184031,0.10058255315428265,-2.492830117567346e-06,-4.562242497766743e-06,2.725421663434522e-05,0.0
4.083333546295762,2.314270386705175e-05,0.0,1.2528958320617676,0.0,1.9016567468643188,1.0,3.2051640657511005,5.690579521632197,-0.0001387287442595557,-0.00025966114597944566,0.0015768101199249295,0.0,0.055940666013964725,0.09931934899904571,-2.4212733544864295e-06,-4.531941936842963e-06,2.7520528271456663e-05,0.0
4.116666881367564,2.3228227291838266e-05,0.0,1.2584810256958008,0.0,1.8999818563461304,1.0,3.1896672971277633,5.616330421245924,-0.00013328579485930917,-0.0002580410280048325,0.0015925282715283503,0.0,0.05567019637806774,0.09802345773066146,-2.3262759664326775e-06,-4.5036655439152214e-06,2.7794861769263983e-05,0.0
4.150000216439366,2.3306554794544354e-05,0.0,1.2634587287902832,0.0,1.898310899734497,1.0,3.173330369267608,5.540243617960069,-0.00014128843443754724,-0.00025631388083220674,0.0016073069006538939,0.0,0.05538506319724724,0.09669549249600605,-2.465948375923342e-06,-4.473521139086391e-06,2.8052797506435848e-05,0.0
4.1833335515111685,2.337435944355093e-05,0.0,1.2678316831588745,0.0,1.896644949913025,1.0,3.156126756195982,5.462355748893366,-0.00015736203123534813,-0.00025406727486965597,0.001621247780319276,0.0,0.05508480350590823,0.09533609273342983,-2.746485562682985e-06,-4.434310468044944e-06,2.829611175722109e-05,0.0
4.216666886582971,2.3429358407156542e-05,0.0,1.2716034650802612,0.0,1.8949828147888184,1.0,3.1377622347670457,5.382706325731072,-0.00015567947341740704,-0.0002511886166151652,0.0016359724128242133,0.0,0.054764282141420234,0.09394594805193358,-2.7171193889047415e-06,-4.384068403464366e-06,2.8553105075578425e-05,0.0
4.250000221654773,2.347148983972147e-05,0.0,1.2747775316238403,0.0,1.8933249711990356,1.0,3.11859843913607,5.301339044546908,-0.00014222021341973038,-0.00024843556595395284,0.0016508969543128599,0.0,0.05442981081048041,0.09252582109187389,-2.4822109870633194e-06,-4.336018604952005e-06,2.8813587463905806e-05,0.0
4.283333556726575,2.350415707041975e-05,0.0,1.2773572206497192,0.0,1.8916720151901245,1.0,3.0986295651557403,5.218291812463761,-0.00013086325055635282,-0.0002461158588371506,0.0016655933187666736,0.0,0.05408128821160783,0.0910763734573551,-2.2839945920706577e-06,-4.29553207808186e-06,2.9070087411697914e-05,0.0
4.316666891798377,2.3527283701696433e-05,0.0,1.2793464660644531,0.0,1.8900234699249268,1.0,3.077854836411068,5.133598872946133,-0.00013454284234651405,-0.0002437805487105236,0.0016795739391005596,0.0,0.053718700793804586,0.08959820280958009,-2.3482155839383237e-06,-4.254773227317054e-06,2.9314095267995493e-05,0.0
4.350000226870179,2.3544182113255374e-05,0.0,1.2807496786117554,0.0,1.8883795738220215,1.0,3.056349490410813,5.04730273142932,-0.00014730296485370833,-0.0002411801277001038,0.0016933777220430473,0.0,0.05334336169931954,0.08809205100834472,-2.570921734646698e-06,-4.2093873187471905e-06,2.9555016729572535e-05,0.0
4.383333561941981,2.3550370315206237e-05,0.0,1.281570553779602,0.0,1.8867403268814087,1.0,3.0337105063152277,4.959438744369785,-0.00014890302078277191,-0.00023793253345330244,0.0017072963779176564,0.0,0.05294823688754495,0.08655853514022614,-2.598847978824914e-06,-4.1527061063716814e-06,2.9797943102036515e-05,0.0
4.4166668970137835,2.354421121708583e-05,0.0,1.281813383102417,0.0,1.8851057291030884,1.0,3.0103614693631755,4.870054204473633,-0.00014141084302986422,-0.00023465498189099935,0.0017212453787986482,0.0,0.05254071931556182,0.08499848061865806,-2.4680848088920046e-06,-4.0955020402056086e-06,3.004139909477341e-05,0.0
4.450000232085586,2.3527585653937422e-05,0.0,1.2814826965332031,0.0,1.8834761381149292,1.0,2.986049427532306,4.779189404381223,-0.0001180796043867886,-0.0002316085519234102,0.0017354779480724114,0.0,0.05211639413773055,0.08341259068287905,-2.060877876001801e-06,-4.042331806839753e-06,3.0289804289618756e-05,0.0
4.483333567157388,2.350713111809455e-05,0.0,1.2805835008621216,0.0,1.8818515539169312,1.0,2.9612260116399005,4.686886002104838,-0.00010956342308743314,-0.000229156798429861,0.001748622218994283,0.0,0.051683143798816195,0.08180159240236332,-1.9122424726312793e-06,-3.999540635930046e-06,3.0519215094979565e-05,0.0
4.51666690222919,2.3482542019337416e-05,0.0,1.279119849205017,0.0,1.8802313804626465,1.0,2.9356123492838573,4.593178763414189,-0.00011837782055962098,-0.0002266962093102859,0.001760598943251754,0.0,0.05123610105720911,0.08016609255425926,-2.0660827301004224e-06,-3.9565952542547124e-06,3.072824836687591e-05,0.0
4.550000237300992,2.345398024772294e-05,0.0,1.2770968675613403,0.0,1.8786166906356812,1.0,2.9093844424278172,4.498104958935516,-0.00015305660727111988,-0.00022346678494808216,0.0017711390422159746,0.0,0.05077833772666482,0.07850674163370909,-2.6713417388129354e-06,-3.9002311661901395e-06,3.09122077972876e-05,0.0
4.583333572372794,2.341301842534449e-05,0.0,1.274519443511963,0.0,1.8770067691802979,1.0,2.8822620056207073,4.401706780462353,-0.0001789531402202121,-0.00021902527270894787,0.001782200985796389,0.0,0.05030496190321665,0.07682427602642727,-3.1233215036257913e-06,-3.82271215384962e-06,3.110527513443568e-05,0.0
4.616666907444596,2.3354037693934515e-05,0.0,1.2713932991027832,0.0,1.8754022121429443,1.0,2.8543815884980686,4.304027229922446,-0.00019294220588085846,-0.00021365749233875371,0.0017938827399790651,0.0,0.0498183568275972,0.0751194462576377,-3.3674767586817465e-06,-3.7290267128658122e-06,3.1309160207332e-05,0.0
4.650000242516398,2.3275841158465482e-05,0.0,1.267723560333252,0.0,1.8738020658493042,1.0,2.8255998652848144,4.20511325019638,-0.00017495170305178043,-0.0002080858438598451,0.001807232357869014,0.0,0.049316020993128235,0.07339307163516692,-3.05348325022498e-06,-3.6317831021451226e-06,3.1542154993394743e-05,0.0
4.683333577588201,2.3180073185358196e-05,0.0,1.2635154724121094,0.0,1.872207760810852,1.0,2.796217665191119,4.105005145398877,-0.00014522587258804129,-0.00020307977253167898,0.0018213170319430591,0.0,0.048803204860013466,0.07164585559851896,-2.534669635743099e-06,-3.5444106748789384e-06,3.178797893005712e-05,0.0
4.716666912660003,2.307352224306669e-05,0.0,1.258774995803833,0.0,1.8706179857254028,1.0,2.766036541884876,4.003747904972856,-9.76271781673392e-05,-0.00019908017033491251,0.0018359587579680492,0.0,0.048276444886369126,0.0698785833616014,-1.7039156984511927e-06,-3.474604447775366e-06,3.2043525257368136e-05,0.0
4.750000247731805,2.2966405595070682e-05,0.0,1.253507375717163,0.0,1.8690333366394043,1.0,2.735506620431852,3.901379449635174,-6.821027852600079e-05,-0.00019642050806712802,0.0018497984639725517,0.0,0.0477435972366386,0.06809191676577807,-1.1904939439810984e-06,-3.4281845842114673e-06,3.2285073694654735e-05,0.0
4.783333582803607,2.286295966769103e-05,0.0,1.2477186918258667,0.0,1.867453694343567,1.0,2.7041580672228673,3.797937727582106,-5.09364640017885e-05,-0.00019440427300063262,0.0018630575109766642,0.0,0.04719646176740519,0.0662865181320192,-8.890090061547761e-07,-3.3929946438069557e-06,3.2516487720553185e-05,0.0
4.816666917875409,2.276588202221319e-05,0.0,1.2414151430130005,0.0,1.8658785820007324,1.0,2.6725769639409944,3.6934660442991425,-7.363292655921504e-05,-0.0001926522879460102,0.0018748513828212882,0.0,0.04664526753372412,0.06446314328363077,-1.2851370063374818e-06,-3.3624167361580614e-06,3.272232961580013e-05,0.0
4.850000252947211,2.2673781131743453e-05,0.0,1.2346019744873047,0.0,1.8643091917037964,1.0,2.6401083757983552,3.5879948113914653,-0.00011028841079942354,-0.00018970154222629567,0.0018863788575836332,0.0,0.04607858376716108,0.06262232300325402,-1.924895895242012e-06,-3.3109165079599134e-06,3.29235220048436e-05,0.0
4.883333588019013,2.2577507479581982e-05,0.0,1.227286458015442,0.0,1.8627444505691528,1.0,2.6072847637527943,3.481576448844021,-0.00016034594956175477,-0.00018559205725554898,0.0018974481559007553,0.0,0.04550570366456876,0.060764972192220094,-2.7985647620893794e-06,-3.239192464659161e-06,3.311671770636285e-05,0.0
4.9166669230908155,2.2465732399723493e-05,0.0,1.2194740772247314,0.0,1.86118483543396,1.0,2.573737549000827,3.37424178436036,-0.00021623691821760096,-0.00017951279532114653,0.001908416898562681,0.0,0.04492019431227332,0.058891628895456787,-3.774046187262845e-06,-3.1330893278126786e-06,3.3308158380617425e-05,0.0
4.950000258162618,2.2329955754685216e-05,0.0,1.2111715078353882,0.0,1.8596299886703491,1.0,2.5394520490744528,3.2660414415378143,-0.0002482078169916114,-0.00017179189661096234,0.0019206410618252295,0.0,0.04432179945286582,0.05700317666141675,-4.332043635691146e-06,-2.998334224106981e-06,3.352151027785023e-05,0.0
4.98333359323442,2.2162801542435773e-05,0.0,1.2023851871490479,0.0,1.8580801486968994,1.0,2.504818931410839,3.1570165503148324,-0.00027720284067043956,-0.00016301434625020985,0.0019330571684855117,0.0,0.04371733751940515,0.05510033334294705,-4.838102265580416e-06,-2.845137070052234e-06,3.3738212219350946e-05,0.0
5.016666928306222,2.1957877834211104e-05,0.0,1.1931219100952148,0.0,1.8565354347229004,1.0,2.469230095828111,3.047208567765406,-0.0002681420107967094,-0.00015318687728011702,0.0019470227265706202,0.0,0.043096195161535636,0.053183822502487085,-4.6799609513207625e-06,-2.673615379386538e-06,3.3981957189814605e-05,0.0
5.050000263378024,2.1718136849813163e-05,0.0,1.1833884716033936,0.0,1.8549953699111938,1.0,2.433265525339568,2.9366704220682,-0.00023144670674683096,-0.00014392561256837966,0.0019619845492622663,0.0,0.04246849499244497,0.051254567911021634,-4.039507075629974e-06,-2.5119758172679577e-06,3.424309025788343e-05,0.0
5.083333598449826,2.144845711882226e-05,0.0,1.1731914281845093,0.0,1.8534601926803589,1.0,2.396816171755607,2.825435614164802,-0.0001872785137452179,-0.00013560882172984745,0.001977160177884835,0.0,0.04183233376218126,0.049313154270283925,-3.268626683095509e-06,-2.3668204339358704e-06,3.4507954943407146e-05,0.0
5.116666933521628,2.1159512471058406e-05,0.0,1.1625381708145142,0.0,1.851930022239685,1.0,2.359513479899788,2.713551958353502,-0.00011412896436505339,-0.00012862022782845567,0.0019935342202661603,0.0,0.04118127896944035,0.04736041609720866,-1.9919262000614612e-06,-2.244846460271788e-06,3.4793735894822364e-05,0.0
5.1500002685934305,2.086420136038214e-05,0.0,1.1514354944229126,0.0,1.8504045009613037,1.0,2.3220194279080055,2.601066637764291,-4.013403418521133e-05,-0.000123987515374958,0.0020097784317244095,0.0,0.0405268843122698,0.04539717689276556,-7.004710386398974e-07,-2.163990374660109e-06,3.507725086915901e-05,0.0
5.183333603665233,2.0576522729243152e-05,0.0,1.139890432357788,0.0,1.8488842248916626,1.0,2.284067974021662,2.4880116943195922,2.5338153723989393e-05,-0.0001213479319322848,0.002025920622034016,0.0,0.039864506486034304,0.04342399589399958,4.4223420886007744e-07,-2.1179209527043344e-06,3.5358985238545156e-05,0.0
5.216666938737035,2.0308436432969756e-05,0.0,1.1279107332229614,0.0,1.8473680019378662,1.0,2.2453515939537647,2.3744361592337384,0.00010922379022493413,-0.00012068577100420446,0.002043173279997081,0.0,0.039188778179396,0.04144172885703709,1.9063147609326985e-06,-2.106364064331271e-06,3.566010092472107e-05,0.0
5.250000273808837,2.0077242879779078e-05,0.0,1.1155034303665161,0.0,1.8458571434020996,1.0,2.206457561984885,2.2603864089894325,0.00019059874318681758,-0.0001228157615844831,0.0020605493879031034,0.0,0.03850994926216311,0.03945118520419675,3.3265756187730763e-06,-2.143539412993598e-06,3.596337121886297e-05,0.0
5.283333608880639,1.9897939637303352e-05,0.0,1.1026760339736938,0.0,1.8443506956100464,1.0,2.167324851343092,2.1458947229010255,0.0002500439577061872,-0.00012730944569945557,0.0020771078400045745,0.0,0.0378269546162336,0.037452928315794255,4.364090336690415e-06,-2.2219689963444348e-06,3.625237072706742e-05,0.0
5.316666943952441,1.978097679966595e-05,0.0,1.0894358158111572,0.0,1.842848777770996,1.0,2.1274682640529594,2.0310004958555865,0.00031306510374438576,-0.0001335259676060027,0.002093615489291935,0.0,0.03713132593941226,0.03544764576231743,5.46401683343716e-06,-2.330467771636038e-06,3.6540483558896354e-05,0.0
5.350000279024243,1.9737692127819173e-05,0.0,1.0757906436920166,0.0,1.8413517475128174,1.0,2.087235873994525,1.91575497018492,0.00038109349695385214,-0.00014195945534763323,0.002110162611661309,0.0,0.03642913826694595,0.03343623189117265,6.6513362797837005e-06,-2.4776599001540713e-06,3.682928532597233e-05,0.0
5.3833336140960455,1.97815152205294e-05,0.0,1.0617479085922241,0.0,1.839859127998352,1.0,2.046989870225087,1.8001941659605711,0.0004253789172532279,-0.0001526442347049796,0.002125797487306804,0.0,0.03572671299039921,0.031419315371205195,7.424262674637341e-06,-2.6641444797888894e-06,3.710216538412609e-05,0.0
5.416666949167848,1.9922697902075015e-05,0.0,1.0473154783248901,0.0,1.8383711576461792,1.0,2.00638903424043,1.6843514068409198,0.0004514839432342326,-0.00016461461982225574,0.0021407200505507997,0.0,0.03501809472340475,0.02939747780997259,7.879881329324535e-06,-2.8730671128170855e-06,3.736261324557091e-05,0.0
5.45000028423965,2.0163684894214384e-05,0.0,1.032500982284546,0.0,1.8368877172470093,1.0,1.9651664236527606,1.5682696301056478,0.0004911656036253186,-0.00017754129870423005,0.0021556270500124757,0.0,0.03429862444238244,0.02737146860437714,8.572456955807207e-06,-3.0986802206555564e-06,3.7622789467770176e-05,0.0
5.483333619311452,2.0511579350568354e-05,0.0,1.0173122882843018,0.0,1.8354090452194214,1.0,1.9236637204763478,1.4519961533422525,0.0005421436548204899,-0.00019217698998525841,0.002170504084125505,0.0,0.03357426562347613,0.025342113602114774,9.462191795413175e-06,-3.3541212218149283e-06,3.788244269597405e-05,0.0
5.516666954383254,2.0977082385797985e-05,0.0,1.001757264137268,0.0,1.8339343070983887,1.0,1.882202946274424,1.3355675207504827,0.0005736060138598183,-0.0002087521559024131,0.002184626896463306,0.0,0.03285063860322664,0.02331005061979361,1.0011313551094056e-05,-3.643412441133623e-06,3.812893227090996e-05,0.0
5.550000289455056,2.1565072529483587e-05,0.0,0.9858440160751343,0.0,1.8324639797210693,1.0,1.8406324618546002,1.2190146270031668,0.0005742605715505053,-0.00022639636188548346,0.002197956526366193,0.0,0.032125096778451705,0.021275818871175838,1.0022737737940797e-05,-3.951361929438284e-06,3.8361578200787624e-05,0.0
5.583333624526858,2.227747972938232e-05,0.0,0.969580352306366,0.0,1.8309985399246216,1.0,1.7986456648351894,1.1023732039913945,0.0005627579454926209,-0.00024417060540155564,0.0022111043896075704,0.0,0.031392288928096444,0.01924004199540893,9.821979040605017e-06,-4.261581000844997e-06,3.8591051703951596e-05,0.0
5.6166669595986605,2.3109589164960198e-05,0.0,0.9529742002487183,0.0,1.8295371532440186,1.0,1.7562494962317918,0.9856871262951452,0.0005539157302807051,-0.0002619264669245326,0.0022240602385231534,0.0,0.030652336195736513,0.01720348574837146,9.667653271987159e-06,-4.57147924594912e-06,3.8817173924919454e-05,0.0
5.650000294670463,2.406036037427839e-05,0.0,0.9360337257385254,0.0,1.8280800580978394,1.0,1.7137198319545481,0.8689993096289135,0.0005332993486182076,-0.00027985617101358614,0.0022365861401192205,0.0,0.029910053524330796,0.015166899150582202,9.307829532128795e-06,-4.884411616211395e-06,3.903579214955164e-05,0.0
5.683333629742265,2.512669379939325e-05,0.0,0.918766975402832,0.0,1.8266276121139526,1.0,1.6712581184203246,0.7523417349781025,0.00047030475694104446,-0.0002974168682520563,0.002247945687436685,0.0,0.029168956817119958,0.013130840375534478,8.20836649641288e-06,-5.190903601968575e-06,3.923405365177748e-05,0.0
5.716666964814067,2.629585469549056e-05,0.0,0.9011820554733276,0.0,1.8251792192459106,1.0,1.6288169449400012,0.6357455193258178,0.00034436880628735996,-0.00031300312137552883,0.0022574099932747204,0.0,0.028428218601478213,0.011095852517036762,6.010369510876981e-06,-5.462935037022421e-06,3.939923695006692e-05,0.0
5.750000299885869,2.7544341719476506e-05,0.0,0.8832870721817017,0.0,1.8237354755401611,1.0,1.5861841033017519,0.5192430362049164,0.00016232792626813642,-0.000324472767079105,0.0022655383727031198,0.0,0.02768413514540943,0.009062500599827912,2.833156781313572e-06,-5.663118118587046e-06,3.954110393394386e-05,0.0
5.783333634957671,2.883764318539761e-05,0.0,0.865090012550354,0.0,1.8222951889038086,1.0,1.543151920743223,0.4028734134030944,-4.1245464470474074e-05,-0.00033010671299190525,0.0022735174101305806,0.0,0.026933081875443823,0.00703146753263225,-7.198691565241121e-07,-5.761449024644688e-06,3.968036440819292e-05,0.0
5.816666970029473,3.0131423045531847e-05,0.0,0.846599280834198,0.0,1.8208595514297485,1.0,1.499624745081056,0.28668112125032236,-0.00022282672377585522,-0.0003294160134527706,0.002282249544211824,0.0,0.026173389346045066,0.005003529469127208,-3.8890599913206045e-06,-5.749394043544781e-06,3.983276889863622e-05,0.0
5.850000305101275,3.1395506084663793e-05,0.0,0.8278232216835022,0.0,1.8194279670715332,1.0,1.455619093387352,0.1707138463219471,-0.0003497253164266942,-0.0003233080633998252,0.0022922703962574374,0.0,0.025405345834504114,0.0029795186970615886,-6.1038582492248235e-06,-5.642790204573521e-06,4.000766576068738e-05,0.0
5.883333640173078,3.2601859857095405e-05,0.0,0.8087700605392456,0.0,1.8180004358291626,1.0,1.411227771195725,0.05501787535179458,-0.0004081637034708958,-0.00031355570536299954,0.002303680368647896,0.0,0.024630571102946596,0.0009602430723406489,-7.123800512700939e-06,-5.472579446997584e-06,4.020680734646253e-05,0.0
5.91666697524488,3.373737126821652e-05,0.0,0.7894481420516968,0.0,1.8165770769119263,1.0,1.3665800307143605,-0.06036100344861915,-0.0004004876695515709,-0.0003022467003390636,0.0023162379577176847,0.0,0.023851321027970825,-0.001053498249986056,-6.989828447313955e-06,-5.275200074205322e-06,4.04259786218428e-05,0.0
5.950000310316682,3.480787927401252e-05,0.0,0.7698661684989929,0.0,1.8151576519012451,1.0,1.3218267101033117,-0.17538505823002212,-0.0003405675904366845,-0.0002913549989307298,0.002329774189734697,0.0,0.023070228232107384,-0.0030610467249158643,-5.9440257787036975e-06,-5.085104023485793e-06,4.066223043885354e-05,0.0
5.983333645388484,3.582357749110088e-05,0.0,0.7500325441360474,0.0,1.8137421607971191,1.0,1.2771243917388737,-0.2900195861313239,-0.00025125880604111056,-0.00028237658458049104,0.002343457482829216,0.0,0.022290025593373217,-0.005061796673262885,-4.3852934400471985e-06,-4.928401131465819e-06,4.09010489558683e-05,0.0
6.016666980460286,3.6801648093387485e-05,0.0,0.7299558520317078,0.0,1.812330961227417,1.0,1.2326100656044843,-0.40423235879476954,-0.00016231368007947708,-0.0002760808324879551,0.0023572807744010028,0.0,0.02151310403802156,-0.007055185604071785,-2.8329081384156066e-06,-4.818519528561744e-06,4.114231090725916e-05,0.0
6.050000315532088,3.7758847611257806e-05,0.0,0.7096444964408875,0.0,1.8109233379364014,1.0,1.188351563991522,-0.517999054795725,-0.00010593314573258457,-0.00027229022385105527,0.0023703628680100597,0.0,0.020740647462876148,-0.009040789028403924,-1.8488821800285814e-06,-4.752360927193308e-06,4.137063651379131e-05,0.0
6.08333365060389,3.8705406041117385e-05,0.0,0.6891070008277893,0.0,1.8095200061798096,1.0,1.1443151826995392,-0.6312921043683667,-0.00010887282698673807,-0.0002698191966087264,0.0023821629257065207,0.0,0.019972067618667412,-0.011018125763071677,-1.900189296872716e-06,-4.709233365908194e-06,4.157658637251985e-05,0.0
6.116666985675693,3.964368806919083e-05,0.0,0.6683515906333923,0.0,1.808120846748352,1.0,1.100353796151194,-0.7440879141766874,-0.00018138012113301077,-0.0002666708495086033,0.002392726678856649,0.0,0.019204796679656844,-0.012986784026680187,-3.1656803114371858e-06,-4.6542843430154305e-06,4.1760958646357514e-05,0.0
6.150000320747495,4.055595491081476e-05,0.0,0.6473868489265442,0.0,1.8067249059677124,1.0,1.0562763706754283,-0.8563512234189812,-0.000306299609796611,-0.00026059987890864354,0.002402405725389572,0.0,0.018435500479302303,-0.014946148402142794,-5.34593668852474e-06,-4.548325917254357e-06,4.1929889876810766e-05,0.0
6.183333655819297,4.1418748878641054e-05,0.0,0.6262210607528687,0.0,1.8053330183029175,1.0,1.011932846273463,-0.9680469940190495,-0.0004395510147249776,-0.00025008504884329355,0.0024122180664961045,0.0,0.01766155997654956,-0.01689560735966627,-7.671612437432936e-06,-4.364807512326309e-06,4.210114753644854e-05,0.0
6.216666990891099,4.220586197334342e-05,0.0,0.6048626899719238,0.0,1.8039448261260986,1.0,0.9673159307370468,-1.0791323392570455,-0.0005323127474799295,-0.0002351823428522331,0.0024227414133972283,0.0,0.016882847898354886,-0.018834412384783904,-9.290610093861918e-06,-4.10470622532562e-06,4.228481458820269e-05,0.0
